[
    {
        "reference":"US-0001",
        "name":"Acadia National Park",
        "latitude":44.31,
        "longitude":-68.2034,
        "grid":"FN54vh",
        "locationDesc":"US-ME"
    },
    {
        "reference":"US-0002",
        "name":"Alagnak Wild River National Park",
        "latitude":59.0908,
        "longitude":-156.463,
        "grid":"BO19sc",
        "locationDesc":"US-AK"
    },
    {
        "reference":"US-0003",
        "name":"Aniakchak National Preserve",
        "latitude":56.8075,
        "longitude":-157.83,
        "grid":"BO16ct",
        "locationDesc":"US-AK"
    },
    {
        "reference":"US-0004",
        "name":"Arches National Park",
        "latitude":38.6166,
        "longitude":-109.62,
        "grid":"DM58eo",
        "locationDesc":"US-UT"
    },
    {
        "reference":"US-0005",
        "name":"Badlands National Park",
        "latitude":43.8555,
        "longitude":-102.339,
        "grid":"DN83tu",
        "locationDesc":"US-SD"
    },
    {
        "reference":"US-0006",
        "name":"Big Bend National Park",
        "latitude":29.1287,
        "longitude":-103.232,
        "grid":"DL89jd",
        "locationDesc":"US-TX"
    },
    {
        "reference":"US-0007",
        "name":"Biscayne Bay National Park",
        "latitude":25.4643,
        "longitude":-80.3353,
        "grid":"EL95tl",
        "locationDesc":"US-FL"
    },
    {
        "reference":"US-0008",
        "name":"Black Canyon of the Gunnison National Park",
        "latitude":38.5762,
        "longitude":-107.731,
        "grid":"DM68dn",
        "locationDesc":"US-CO"
    },
    {
        "reference":"US-0009",
        "name":"Bryce Canyon National Park",
        "latitude":37.5945,
        "longitude":-112.159,
        "grid":"DM37wo",
        "locationDesc":"US-UT"
    },
    {
        "reference":"US-0010",
        "name":"Canyonlands National Park",
        "latitude":38.3301,
        "longitude":-109.826,
        "grid":"DM58ch",
        "locationDesc":"US-UT"
    },
    {
        "reference":"US-0011",
        "name":"Capitol Reef National Park",
        "latitude":38.3712,
        "longitude":-111.209,
        "grid":"DM48ji",
        "locationDesc":"US-UT"
    },
    {
        "reference":"US-0012",
        "name":"Carlsbad Caverns National Park",
        "latitude":32.1754,
        "longitude":-104.444,
        "grid":"DM72se",
        "locationDesc":"US-NM"
    },
    {
        "reference":"US-0013",
        "name":"Chaco Culture National Historical Park",
        "latitude":36.053,
        "longitude":-107.956,
        "grid":"DM66ab",
        "locationDesc":"US-NM"
    },
    {
        "reference":"US-0014",
        "name":"Channel Islands National Park",
        "latitude":34.0026,
        "longitude":-119.731,
        "grid":"DM04da",
        "locationDesc":"US-CA"
    },
    {
        "reference":"US-0015",
        "name":"Chesapeake and Ohio Canal National Historical Park",
        "latitude":39.6007,
        "longitude":-77.8265,
        "grid":"FM19co",
        "locationDesc":"US-DC,US-MD,US-WV"
    },
    {
        "reference":"US-0016",
        "name":"Colonial National Historical Park",
        "latitude":37.2305,
        "longitude":-76.5025,
        "grid":"FM17rf",
        "locationDesc":"US-VA"
    },
    {
        "reference":"US-0017",
        "name":"Congaree National Park",
        "latitude":33.8432,
        "longitude":-80.8289,
        "grid":"EM93ou",
        "locationDesc":"US-SC"
    },
    {
        "reference":"US-0018",
        "name":"Crater Lake National Park",
        "latitude":42.87,
        "longitude":-122.144,
        "grid":"CN82wu",
        "locationDesc":"US-OR"
    },
    {
        "reference":"US-0019",
        "name":"Cumberland Gap National Historical Park",
        "latitude":36.6038,
        "longitude":-83.6741,
        "grid":"EM86do",
        "locationDesc":"US-KY,US-TN,US-VA"
    },
    {
        "reference":"US-0020",
        "name":"Cuyahoga Valley National Park",
        "latitude":41.2628,
        "longitude":-81.5585,
        "grid":"EN91fg",
        "locationDesc":"US-OH"
    },
    {
        "reference":"US-0021",
        "name":"Death Valley National Park",
        "latitude":36.8114,
        "longitude":-116.906,
        "grid":"DM16nt",
        "locationDesc":"US-CA,US-NV"
    },
    {
        "reference":"US-0022",
        "name":"Denali National Park",
        "latitude":63.7364,
        "longitude":-148.896,
        "grid":"BP53nr",
        "locationDesc":"US-AK"
    },
    {
        "reference":"US-0023",
        "name":"Dry Tortugas National Park",
        "latitude":24.6298,
        "longitude":-82.8716,
        "grid":"EL84np",
        "locationDesc":"US-FL"
    },
    {
        "reference":"US-0024",
        "name":"Everglades National Park",
        "latitude":25.2885,
        "longitude":-80.8734,
        "grid":"EL95ng",
        "locationDesc":"US-FL"
    },
    {
        "reference":"US-0025",
        "name":"Fort Morgan National Historic Site",
        "latitude":30.2296,
        "longitude":-88.0174,
        "grid":"EM50xf",
        "locationDesc":"US-AL"
    },
    {
        "reference":"US-0026",
        "name":"Gates of the Arctic National Park",
        "latitude":68.1358,
        "longitude":-151.764,
        "grid":"BP48cd",
        "locationDesc":"US-AK"
    },
    {
        "reference":"US-0027",
        "name":"Gettysburg National Military Park",
        "latitude":39.8107,
        "longitude":-77.2245,
        "grid":"FM19jt",
        "locationDesc":"US-PA"
    },
    {
        "reference":"US-0028",
        "name":"Glacier National Park",
        "latitude":48.773,
        "longitude":-113.725,
        "grid":"DN38ds",
        "locationDesc":"US-MT"
    },
    {
        "reference":"US-0029",
        "name":"Glacier Bay National Preserve",
        "latitude":58.4529,
        "longitude":-135.888,
        "grid":"CO28bk",
        "locationDesc":"US-AK"
    },
    {
        "reference":"US-0030",
        "name":"Grand Canyon National Park",
        "latitude":36.1044,
        "longitude":-112.003,
        "grid":"DM36xc",
        "locationDesc":"US-AZ"
    },
    {
        "reference":"US-0031",
        "name":"Grand Teton National Park",
        "latitude":43.7935,
        "longitude":-110.632,
        "grid":"DN43qt",
        "locationDesc":"US-WY"
    },
    {
        "reference":"US-0032",
        "name":"Great Basin National Park",
        "latitude":39.0056,
        "longitude":-114.219,
        "grid":"DM29va",
        "locationDesc":"US-NV"
    },
    {
        "reference":"US-0033",
        "name":"Great Sand Dunes National Park",
        "latitude":37.7942,
        "longitude":-105.581,
        "grid":"DM77ft",
        "locationDesc":"US-CO"
    },
    {
        "reference":"US-0034",
        "name":"Great Smoky Mountains National Park",
        "latitude":35.6154,
        "longitude":-83.4462,
        "grid":"EM85go",
        "locationDesc":"US-NC,US-TN"
    },
    {
        "reference":"US-0035",
        "name":"Guadalupe Mountains National Park",
        "latitude":31.9475,
        "longitude":-104.861,
        "grid":"DM71nw",
        "locationDesc":"US-TX"
    },
    {
        "reference":"US-0036",
        "name":"Haleakala National Park",
        "latitude":20.6618,
        "longitude":-156.045,
        "grid":"BL10xp",
        "locationDesc":"US-HI"
    },
    {
        "reference":"US-0037",
        "name":"Hawai'i Volcanoes National Park",
        "latitude":19.4309,
        "longitude":-155.257,
        "grid":"BK29ik",
        "locationDesc":"US-HI"
    },
    {
        "reference":"US-0038",
        "name":"Hot Springs National Park",
        "latitude":34.522,
        "longitude":-93.0363,
        "grid":"EM34lm",
        "locationDesc":"US-AR"
    },
    {
        "reference":"US-0039",
        "name":"Isle Royale National Park",
        "latitude":47.9988,
        "longitude":-88.8659,
        "grid":"EN57nx",
        "locationDesc":"US-MI"
    },
    {
        "reference":"US-0040",
        "name":"Jean Lafitte National Historical Park",
        "latitude":29.8116,
        "longitude":-90.1413,
        "grid":"EL49wt",
        "locationDesc":"US-LA"
    },
    {
        "reference":"US-0041",
        "name":"Joshua Tree National Park",
        "latitude":33.7548,
        "longitude":-115.824,
        "grid":"DM23cs",
        "locationDesc":"US-CA"
    },
    {
        "reference":"US-0042",
        "name":"Fort Gaines National Historic Site",
        "latitude":30.2483,
        "longitude":-88.0756,
        "grid":"EM50xf",
        "locationDesc":"US-AL"
    },
    {
        "reference":"US-0043",
        "name":"Kalaupapa National Historical Park",
        "latitude":21.1879,
        "longitude":-156.98,
        "grid":"BL11me",
        "locationDesc":"US-HI"
    },
    {
        "reference":"US-0044",
        "name":"Katmai National Park",
        "latitude":58.5572,
        "longitude":-155.778,
        "grid":"BO28cn",
        "locationDesc":"US-AK"
    },
    {
        "reference":"US-0045",
        "name":"Kenai Fjords National Park",
        "latitude":60.1829,
        "longitude":-149.687,
        "grid":"BP50de",
        "locationDesc":"US-AK"
    },
    {
        "reference":"US-0046",
        "name":"Kings Canyon National Park",
        "latitude":36.7899,
        "longitude":-118.67,
        "grid":"DM06ps",
        "locationDesc":"US-CA"
    },
    {
        "reference":"US-0047",
        "name":"Kobuk Valley National Park",
        "latitude":67.0807,
        "longitude":-159.791,
        "grid":"BP07cb",
        "locationDesc":"US-AK"
    },
    {
        "reference":"US-0048",
        "name":"Lake Clark National Park",
        "latitude":60.6626,
        "longitude":-154.049,
        "grid":"BP20xp",
        "locationDesc":"US-AK"
    },
    {
        "reference":"US-0049",
        "name":"Lassen Volcanic National Park",
        "latitude":40.4352,
        "longitude":-121.534,
        "grid":"CN90fk",
        "locationDesc":"US-CA"
    },
    {
        "reference":"US-0050",
        "name":"Mammoth Cave National Park",
        "latitude":37.1877,
        "longitude":-86.1012,
        "grid":"EM67we",
        "locationDesc":"US-KY"
    },
    {
        "reference":"US-0051",
        "name":"Mesa Verde National Park",
        "latitude":37.1839,
        "longitude":-108.491,
        "grid":"DM57se",
        "locationDesc":"US-CO"
    },
    {
        "reference":"US-0052",
        "name":"Mount Rainier National Park",
        "latitude":46.8826,
        "longitude":-121.705,
        "grid":"CN96dv",
        "locationDesc":"US-WA"
    },
    {
        "reference":"US-0054",
        "name":"Nez Perce National Historical Park",
        "latitude":46.447,
        "longitude":-116.824,
        "grid":"DN16ok",
        "locationDesc":"US-ID,US-MT,US-OR,US-WA"
    },
    {
        "reference":"US-0055",
        "name":"North Cascades National Park",
        "latitude":48.7758,
        "longitude":-121.256,
        "grid":"CN98is",
        "locationDesc":"US-WA"
    },
    {
        "reference":"US-0056",
        "name":"Olympic National Park",
        "latitude":48.0468,
        "longitude":-123.418,
        "grid":"CN88gb",
        "locationDesc":"US-WA"
    },
    {
        "reference":"US-0057",
        "name":"Petrified Forest National Park",
        "latitude":35.0659,
        "longitude":-109.779,
        "grid":"DM55cb",
        "locationDesc":"US-AZ"
    },
    {
        "reference":"US-0058",
        "name":"Redwood National Park",
        "latitude":41.7978,
        "longitude":-124.083,
        "grid":"CN71xt",
        "locationDesc":"US-CA"
    },
    {
        "reference":"US-0059",
        "name":"Rocky Mountain National Park",
        "latitude":40.3535,
        "longitude":-105.649,
        "grid":"DN70ei",
        "locationDesc":"US-CO"
    },
    {
        "reference":"US-0060",
        "name":"Saguaro National Park",
        "latitude":32.3048,
        "longitude":-111.131,
        "grid":"DM42kh",
        "locationDesc":"US-AZ"
    },
    {
        "reference":"US-0061",
        "name":"San Juan Island National Historical Park",
        "latitude":48.4663,
        "longitude":-123.017,
        "grid":"CN88ll",
        "locationDesc":"US-WA"
    },
    {
        "reference":"US-0062",
        "name":"Saratoga National Historical Park",
        "latitude":43.0123,
        "longitude":-73.6478,
        "grid":"FN33ea",
        "locationDesc":"US-NY"
    },
    {
        "reference":"US-0063",
        "name":"Sequoia National Park",
        "latitude":36.6036,
        "longitude":-118.732,
        "grid":"DM06po",
        "locationDesc":"US-CA"
    },
    {
        "reference":"US-0064",
        "name":"Shenandoah National Park",
        "latitude":38.9068,
        "longitude":-78.1988,
        "grid":"FM08vv",
        "locationDesc":"US-VA"
    },
    {
        "reference":"US-0065",
        "name":"Theodore Roosevelt National Park",
        "latitude":46.9166,
        "longitude":-103.528,
        "grid":"DN86fv",
        "locationDesc":"US-ND"
    },
    {
        "reference":"US-0067",
        "name":"Voyageurs National Park",
        "latitude":48.4443,
        "longitude":-93.0303,
        "grid":"EN38lk",
        "locationDesc":"US-MN"
    },
    {
        "reference":"US-0068",
        "name":"Wind Cave National Park",
        "latitude":43.6062,
        "longitude":-103.432,
        "grid":"DN83go",
        "locationDesc":"US-SD"
    },
    {
        "reference":"US-0069",
        "name":"Wrangell-St. Elias National Park",
        "latitude":61.5124,
        "longitude":-142.835,
        "grid":"BP81nm",
        "locationDesc":"US-AK"
    },
    {
        "reference":"US-0070",
        "name":"Yellowstone National Park",
        "latitude":44.4281,
        "longitude":-110.587,
        "grid":"DN44qk",
        "locationDesc":"US-ID,US-MT,US-WY"
    },
    {
        "reference":"US-0071",
        "name":"Yosemite National Park",
        "latitude":37.7477,
        "longitude":-119.585,
        "grid":"DM07er",
        "locationDesc":"US-CA"
    },
    {
        "reference":"US-0072",
        "name":"Zion National Park",
        "latitude":37.3021,
        "longitude":-113.006,
        "grid":"DM37lh",
        "locationDesc":"US-UT"
    },
    {
        "reference":"US-0117",
        "name":"Hakalau Forest National Wildlife Refuge",
        "latitude":19.793,
        "longitude":-155.321,
        "grid":"BK29it",
        "locationDesc":"US-HI"
    },
    {
        "reference":"US-0118",
        "name":"Hanalei National Wildlife Refuge",
        "latitude":22.2012,
        "longitude":-159.468,
        "grid":"BL02ge",
        "locationDesc":"US-HI"
    },
    {
        "reference":"US-0119",
        "name":"Hawaiian Islands National Wildlife Refuge",
        "latitude":28.2247,
        "longitude":-177.355,
        "grid":"AL18hf",
        "locationDesc":"US-HI"
    },
    {
        "reference":"US-0120",
        "name":"Ginkgo Petrified Forest State Park",
        "latitude":46.9008,
        "longitude":-119.989,
        "grid":"DN06av",
        "locationDesc":"US-WA"
    },
    {
        "reference":"US-0121",
        "name":"Kure Atoll State Wildlife Area",
        "latitude":28.4168,
        "longitude":-178.332,
        "grid":"AL08uk",
        "locationDesc":"US-KI"
    },
    {
        "reference":"US-0123",
        "name":"Huleia National Wildlife Refuge",
        "latitude":21.9464,
        "longitude":-159.384,
        "grid":"BL01hw",
        "locationDesc":"US-HI"
    },
    {
        "reference":"US-0124",
        "name":"James Campbell National Wildlife Refuge",
        "latitude":21.6882,
        "longitude":-157.952,
        "grid":"BL11aq",
        "locationDesc":"US-HI"
    },
    {
        "reference":"US-0125",
        "name":"Kakahaia National Wildlife Refuge",
        "latitude":21.0642,
        "longitude":-156.941,
        "grid":"BL11mb",
        "locationDesc":"US-HI"
    },
    {
        "reference":"US-0126",
        "name":"Kealia Pond National Wildlife Refuge",
        "latitude":20.7922,
        "longitude":-156.468,
        "grid":"BL10st",
        "locationDesc":"US-HI"
    },
    {
        "reference":"US-0127",
        "name":"Kilauea Point National Wildlife Refuge",
        "latitude":22.2317,
        "longitude":-159.402,
        "grid":"BL02hf",
        "locationDesc":"US-HI"
    },
    {
        "reference":"US-0128",
        "name":"O'ahu Forest National Wildlife Refuge",
        "latitude":21.479,
        "longitude":-157.923,
        "grid":"BL11al",
        "locationDesc":"US-HI"
    },
    {
        "reference":"US-0129",
        "name":"Pearl Harbor National Wildlife Refuge",
        "latitude":21.3011,
        "longitude":-158.087,
        "grid":"BL01wh",
        "locationDesc":"US-HI"
    },
    {
        "reference":"US-0136",
        "name":"Bon Secour National Wildlife Refuge",
        "latitude":30.2415,
        "longitude":-87.8249,
        "grid":"EM60cf",
        "locationDesc":"US-AL"
    },
    {
        "reference":"US-0137",
        "name":"Cahaba River National Wildlife Refuge",
        "latitude":33.0614,
        "longitude":-87.0678,
        "grid":"EM63lb",
        "locationDesc":"US-AL"
    },
    {
        "reference":"US-0138",
        "name":"Choctaw National Wildlife Refuge",
        "latitude":31.8151,
        "longitude":-88.1922,
        "grid":"EM51vt",
        "locationDesc":"US-AL"
    },
    {
        "reference":"US-0139",
        "name":"Eufaula National Wildlife Refuge",
        "latitude":31.9959,
        "longitude":-85.0948,
        "grid":"EM71kx",
        "locationDesc":"US-AL,US-GA"
    },
    {
        "reference":"US-0140",
        "name":"Fern Cave National Wildlife Refuge",
        "latitude":34.6737,
        "longitude":-86.3134,
        "grid":"EM64uq",
        "locationDesc":"US-AL"
    },
    {
        "reference":"US-0141",
        "name":"Key Cave National Wildlife Refuge",
        "latitude":34.7569,
        "longitude":-87.7881,
        "grid":"EM64cs",
        "locationDesc":"US-AL"
    },
    {
        "reference":"US-0142",
        "name":"Arctic National Wildlife Refuge",
        "latitude":68.445,
        "longitude":-149.326,
        "grid":"BP58ik",
        "locationDesc":"US-AK"
    },
    {
        "reference":"US-0143",
        "name":"Alaska Maritime National Wildlife Refuge",
        "latitude":51.8677,
        "longitude":-176.667,
        "grid":"AO11pu",
        "locationDesc":"US-AK"
    },
    {
        "reference":"US-0144",
        "name":"Alaska Peninsula National Wildlife Refuge",
        "latitude":55.025,
        "longitude":-162.23,
        "grid":"AO85va",
        "locationDesc":"US-AK"
    },
    {
        "reference":"US-0145",
        "name":"Becharof National Wildlife Refuge",
        "latitude":58.0988,
        "longitude":-156.611,
        "grid":"BO18qc",
        "locationDesc":"US-AK"
    },
    {
        "reference":"US-0146",
        "name":"Innoko National Wildlife Refuge",
        "latitude":63.5427,
        "longitude":-158.203,
        "grid":"BP03vn",
        "locationDesc":"US-AK"
    },
    {
        "reference":"US-0147",
        "name":"Izembek National Wildlife Refuge",
        "latitude":55.2927,
        "longitude":-162.672,
        "grid":"AO85ph",
        "locationDesc":"US-AK"
    },
    {
        "reference":"US-0148",
        "name":"Kanuti National Wildlife Refuge",
        "latitude":66.8835,
        "longitude":-151.494,
        "grid":"BP46gv",
        "locationDesc":"US-AK"
    },
    {
        "reference":"US-0149",
        "name":"Kenai National Wildlife Refuge",
        "latitude":60.5179,
        "longitude":-150.555,
        "grid":"BP40rm",
        "locationDesc":"US-AK"
    },
    {
        "reference":"US-0150",
        "name":"Kodiak National Wildlife Refuge",
        "latitude":57.7412,
        "longitude":-152.52,
        "grid":"BO37rr",
        "locationDesc":"US-AK"
    },
    {
        "reference":"US-0151",
        "name":"Koyukuk National Wildlife Refuge",
        "latitude":65.693,
        "longitude":-156.388,
        "grid":"BP15tq",
        "locationDesc":"US-AK"
    },
    {
        "reference":"US-0152",
        "name":"Nowitna National Wildlife Refuge",
        "latitude":64.6535,
        "longitude":-153.932,
        "grid":"BP34ap",
        "locationDesc":"US-AK"
    },
    {
        "reference":"US-0153",
        "name":"Selawik National Wildlife Refuge",
        "latitude":66.6633,
        "longitude":-159.066,
        "grid":"BP06lp",
        "locationDesc":"US-AK"
    },
    {
        "reference":"US-0154",
        "name":"Tetlin National Wildlife Refuge",
        "latitude":62.6854,
        "longitude":-141.126,
        "grid":"BP92kq",
        "locationDesc":"US-AK"
    },
    {
        "reference":"US-0155",
        "name":"Togiak National Wildlife Refuge",
        "latitude":59.0518,
        "longitude":-158.579,
        "grid":"BO09rb",
        "locationDesc":"US-AK"
    },
    {
        "reference":"US-0156",
        "name":"Yukon Delta National Wildlife Refuge",
        "latitude":61.935,
        "longitude":-162.899,
        "grid":"AP81nw",
        "locationDesc":"US-AK"
    },
    {
        "reference":"US-0157",
        "name":"Yukon Flats National Wildlife Refuge",
        "latitude":66.0144,
        "longitude":-149.06,
        "grid":"BP56la",
        "locationDesc":"US-AK"
    },
    {
        "reference":"US-0158",
        "name":"Mountain Longleaf National Wildlife Refuge",
        "latitude":33.7119,
        "longitude":-85.7381,
        "grid":"EM73dr",
        "locationDesc":"US-AL"
    },
    {
        "reference":"US-0159",
        "name":"Sauta Cave National Wildlife Refuge",
        "latitude":34.6121,
        "longitude":-86.1354,
        "grid":"EM64wo",
        "locationDesc":"US-AL"
    },
    {
        "reference":"US-0160",
        "name":"Watercress Darter National Wildlife Refuge",
        "latitude":33.3751,
        "longitude":-86.9649,
        "grid":"EM63mj",
        "locationDesc":"US-AL"
    },
    {
        "reference":"US-0161",
        "name":"Wheeler National Wildlife Refuge",
        "latitude":34.5572,
        "longitude":-86.9531,
        "grid":"EM64mn",
        "locationDesc":"US-AL"
    },
    {
        "reference":"US-0162",
        "name":"Bald Knob National Wildlife Refuge",
        "latitude":35.2377,
        "longitude":-91.5715,
        "grid":"EM45ff",
        "locationDesc":"US-AR"
    },
    {
        "reference":"US-0163",
        "name":"Big Lake National Wildlife Refuge",
        "latitude":35.9135,
        "longitude":-90.1198,
        "grid":"EM45wv",
        "locationDesc":"US-AR"
    },
    {
        "reference":"US-0164",
        "name":"Cache River National Wildlife Refuge",
        "latitude":35.0606,
        "longitude":-91.319,
        "grid":"EM45ib",
        "locationDesc":"US-AR"
    },
    {
        "reference":"US-0165",
        "name":"Felsenthal National Wildlife Refuge",
        "latitude":33.1494,
        "longitude":-92.0626,
        "grid":"EM33xd",
        "locationDesc":"US-AR"
    },
    {
        "reference":"US-0166",
        "name":"Holla Bend National Wildlife Refuge",
        "latitude":35.1432,
        "longitude":-93.0698,
        "grid":"EM35ld",
        "locationDesc":"US-AR"
    },
    {
        "reference":"US-0168",
        "name":"Overflow National Wildlife Refuge",
        "latitude":33.0791,
        "longitude":-91.6685,
        "grid":"EM43db",
        "locationDesc":"US-AR"
    },
    {
        "reference":"US-0169",
        "name":"Pond Creek National Wildlife Refuge",
        "latitude":33.8004,
        "longitude":-94.1477,
        "grid":"EM23wt",
        "locationDesc":"US-AR"
    },
    {
        "reference":"US-0170",
        "name":"Wapanocca National Wildlife Refuge",
        "latitude":35.3437,
        "longitude":-90.2149,
        "grid":"EM45vi",
        "locationDesc":"US-AR"
    },
    {
        "reference":"US-0171",
        "name":"White River National Wildlife Refuge",
        "latitude":34.3575,
        "longitude":-91.1211,
        "grid":"EM44ki",
        "locationDesc":"US-AR"
    },
    {
        "reference":"US-0172",
        "name":"Bill Williams River National Wildlife Refuge",
        "latitude":34.2727,
        "longitude":-114.048,
        "grid":"DM24xg",
        "locationDesc":"US-AZ"
    },
    {
        "reference":"US-0173",
        "name":"Buenos Aires National Wildlife Refuge",
        "latitude":31.5718,
        "longitude":-111.508,
        "grid":"DM41fn",
        "locationDesc":"US-AZ"
    },
    {
        "reference":"US-0174",
        "name":"Cabeza Prieta National Wildlife Refuge",
        "latitude":32.1864,
        "longitude":-113.289,
        "grid":"DM32ie",
        "locationDesc":"US-AZ"
    },
    {
        "reference":"US-0175",
        "name":"Cibola National Wildlife Refuge",
        "latitude":33.3635,
        "longitude":-114.672,
        "grid":"DM23pi",
        "locationDesc":"US-AZ,US-CA"
    },
    {
        "reference":"US-0176",
        "name":"Imperial National Wildlife Refuge",
        "latitude":32.9984,
        "longitude":-114.486,
        "grid":"DM22sx",
        "locationDesc":"US-AZ"
    },
    {
        "reference":"US-0177",
        "name":"Kofa National Wildlife Refuge",
        "latitude":33.5351,
        "longitude":-114.164,
        "grid":"DM23wm",
        "locationDesc":"US-AZ"
    },
    {
        "reference":"US-0178",
        "name":"Leslie Canyon National Wildlife Refuge",
        "latitude":31.5791,
        "longitude":-109.504,
        "grid":"DM51fn",
        "locationDesc":"US-AZ"
    },
    {
        "reference":"US-0179",
        "name":"San Bernardino National Wildlife Refuge",
        "latitude":31.3415,
        "longitude":-109.251,
        "grid":"DM51ii",
        "locationDesc":"US-AZ"
    },
    {
        "reference":"US-0180",
        "name":"Twin Lights State Historic Site",
        "latitude":40.3962,
        "longitude":-73.986,
        "grid":"FN30aj",
        "locationDesc":"US-NJ"
    },
    {
        "reference":"US-0181",
        "name":"Bitter Creek National Wildlife Refuge",
        "latitude":34.9589,
        "longitude":-119.443,
        "grid":"DM04gx",
        "locationDesc":"US-CA"
    },
    {
        "reference":"US-0183",
        "name":"Penrose Commons National Recreation Area",
        "latitude":38.4778,
        "longitude":-105.034,
        "grid":"DM78ll",
        "locationDesc":"US-CO"
    },
    {
        "reference":"US-0184",
        "name":"Ramah State Wildlife Area",
        "latitude":39.0849,
        "longitude":-104.2,
        "grid":"DM79vc",
        "locationDesc":"US-CO"
    },
    {
        "reference":"US-0185",
        "name":"Hugo State Wildlife Area",
        "latitude":38.8938,
        "longitude":-103.378,
        "grid":"DM88hv",
        "locationDesc":"US-CO"
    },
    {
        "reference":"US-0187",
        "name":"Colusa National Wildlife Refuge",
        "latitude":39.1966,
        "longitude":-122.039,
        "grid":"CM89xe",
        "locationDesc":"US-CA"
    },
    {
        "reference":"US-0188",
        "name":"Kinney Lake State Wildlife Area",
        "latitude":38.9648,
        "longitude":-103.443,
        "grid":"DM88gx",
        "locationDesc":"US-CO"
    },
    {
        "reference":"US-0189",
        "name":"Don Edwards San Francisco Bay National Wildlife Refuge",
        "latitude":37.5299,
        "longitude":-122.064,
        "grid":"CM87xm",
        "locationDesc":"US-CA"
    },
    {
        "reference":"US-0190",
        "name":"Flagler Reservoir State Wildlife Area",
        "latitude":39.278,
        "longitude":-102.982,
        "grid":"DM89mg",
        "locationDesc":"US-CO"
    },
    {
        "reference":"US-0191",
        "name":"Brush Hollow State Wildlife Area",
        "latitude":38.4419,
        "longitude":-105.014,
        "grid":"DM78lk",
        "locationDesc":"US-CO"
    },
    {
        "reference":"US-0192",
        "name":"Beaver Creek State Wildlife Area",
        "latitude":38.5376,
        "longitude":-105.023,
        "grid":"DM78lm",
        "locationDesc":"US-CO"
    },
    {
        "reference":"US-0193",
        "name":"Guadalupe-Nipomo Dunes National Wildlife Refuge",
        "latitude":34.9725,
        "longitude":-120.572,
        "grid":"CM94rx",
        "locationDesc":"US-CA"
    },
    {
        "reference":"US-0194",
        "name":"Havasu National Wildlife Refuge",
        "latitude":34.6668,
        "longitude":-114.441,
        "grid":"DM24sq",
        "locationDesc":"US-AZ,US-CA"
    },
    {
        "reference":"US-0195",
        "name":"Ogden-Treat State Wildlife Area",
        "latitude":38.3999,
        "longitude":-105.767,
        "grid":"DM78cj",
        "locationDesc":"US-CO"
    },
    {
        "reference":"US-0196",
        "name":"Humboldt Bay National Wildlife Refuge",
        "latitude":40.7195,
        "longitude":-124.218,
        "grid":"CN70vr",
        "locationDesc":"US-CA"
    },
    {
        "reference":"US-0197",
        "name":"Kern National Wild and Scenic River",
        "latitude":35.7962,
        "longitude":-118.45,
        "grid":"DM05st",
        "locationDesc":"US-CA"
    },
    {
        "reference":"US-0198",
        "name":"Kesterson National Wildlife Refuge",
        "latitude":37.1519,
        "longitude":-120.819,
        "grid":"CM97od",
        "locationDesc":"US-CA"
    },
    {
        "reference":"US-0199",
        "name":"Lower Klamath National Wildlife Refuge",
        "latitude":41.9486,
        "longitude":-121.711,
        "grid":"CN91dw",
        "locationDesc":"US-CA,US-OR"
    },
    {
        "reference":"US-0200",
        "name":"Sarah Helmick State Recreation Area",
        "latitude":44.7818,
        "longitude":-123.237,
        "grid":"CN84js",
        "locationDesc":"US-OR"
    },
    {
        "reference":"US-0201",
        "name":"Merced National Wild and Scenic River",
        "latitude":37.605,
        "longitude":-119.967,
        "grid":"DM07ao",
        "locationDesc":"US-CA"
    },
    {
        "reference":"US-0202",
        "name":"Modoc National Wildlife Refuge",
        "latitude":41.4717,
        "longitude":-120.546,
        "grid":"CN91rl",
        "locationDesc":"US-CA"
    },
    {
        "reference":"US-0203",
        "name":"North Central Valley Wildlife Management Area",
        "latitude":39.4287,
        "longitude":-122.192,
        "grid":"CM89vk",
        "locationDesc":"US-CA"
    },
    {
        "reference":"US-0204",
        "name":"Pixley National Wildlife Refuge",
        "latitude":35.906,
        "longitude":-119.376,
        "grid":"DM05hv",
        "locationDesc":"US-CA"
    },
    {
        "reference":"US-0205",
        "name":"Sacramento National Wildlife Refuge",
        "latitude":39.4287,
        "longitude":-122.192,
        "grid":"CM89vk",
        "locationDesc":"US-CA"
    },
    {
        "reference":"US-0206",
        "name":"Sacramento River National Wildlife Refuge",
        "latitude":39.439,
        "longitude":-122.011,
        "grid":"CM89xk",
        "locationDesc":"US-CA"
    },
    {
        "reference":"US-0207",
        "name":"Salinas River National Wildlife Refuge",
        "latitude":36.7346,
        "longitude":-121.794,
        "grid":"CM96cr",
        "locationDesc":"US-CA"
    },
    {
        "reference":"US-0208",
        "name":"San Diego National Wildlife Refuge",
        "latitude":32.6843,
        "longitude":-116.846,
        "grid":"DM12nq",
        "locationDesc":"US-CA"
    },
    {
        "reference":"US-0209",
        "name":"San Diego Bay National Wildlife Refuge",
        "latitude":32.6412,
        "longitude":-117.11,
        "grid":"DM12kp",
        "locationDesc":"US-CA"
    },
    {
        "reference":"US-0210",
        "name":"San Joaquin River National Wildlife Refuge",
        "latitude":37.6126,
        "longitude":-121.221,
        "grid":"CM97jo",
        "locationDesc":"US-CA"
    },
    {
        "reference":"US-0211",
        "name":"San Luis National Wildlife Refuge",
        "latitude":37.1519,
        "longitude":-120.819,
        "grid":"CM97od",
        "locationDesc":"US-CA"
    },
    {
        "reference":"US-0212",
        "name":"San Pablo Bay National Wildlife Refuge",
        "latitude":38.1407,
        "longitude":-122.465,
        "grid":"CM88sd",
        "locationDesc":"US-CA"
    },
    {
        "reference":"US-0213",
        "name":"Maud Williamson State Recreation Area",
        "latitude":45.0959,
        "longitude":-123.069,
        "grid":"CN85lc",
        "locationDesc":"US-OR"
    },
    {
        "reference":"US-0214",
        "name":"Sonny Bono Salton Sea National Wildlife Refuge",
        "latitude":33.1775,
        "longitude":-115.615,
        "grid":"DM23ee",
        "locationDesc":"US-CA"
    },
    {
        "reference":"US-0215",
        "name":"Stone Lakes National Wildlife Refuge",
        "latitude":38.371,
        "longitude":-121.495,
        "grid":"CM98gi",
        "locationDesc":"US-CA"
    },
    {
        "reference":"US-0217",
        "name":"Tijuana Slough National Wildlife Refuge",
        "latitude":32.5756,
        "longitude":-117.127,
        "grid":"DM12kn",
        "locationDesc":"US-CA"
    },
    {
        "reference":"US-0218",
        "name":"Tule Lake National Wildlife Refuge",
        "latitude":41.9468,
        "longitude":-121.565,
        "grid":"CN91fw",
        "locationDesc":"US-CA"
    },
    {
        "reference":"US-0219",
        "name":"H.B. VanDuzer Scenic Corridor State Forest",
        "latitude":45.0387,
        "longitude":-123.809,
        "grid":"CN85ca",
        "locationDesc":"US-OR"
    },
    {
        "reference":"US-0220",
        "name":"Alamosa National Wildlife Refuge",
        "latitude":37.4294,
        "longitude":-105.77,
        "grid":"DM77ck",
        "locationDesc":"US-CO"
    },
    {
        "reference":"US-0221",
        "name":"Arapaho National Wildlife Refuge",
        "latitude":40.6177,
        "longitude":-106.276,
        "grid":"DN60uo",
        "locationDesc":"US-CO"
    },
    {
        "reference":"US-0222",
        "name":"Baca National Wildlife Refuge",
        "latitude":37.8615,
        "longitude":-105.775,
        "grid":"DM77cu",
        "locationDesc":"US-CO"
    },
    {
        "reference":"US-0223",
        "name":"Browns Park National Wildlife Refuge",
        "latitude":40.8128,
        "longitude":-108.956,
        "grid":"DN50mt",
        "locationDesc":"US-CO"
    },
    {
        "reference":"US-0224",
        "name":"Monte Vista National Wildlife Refuge",
        "latitude":37.4881,
        "longitude":-106.098,
        "grid":"DM67wl",
        "locationDesc":"US-CO"
    },
    {
        "reference":"US-0225",
        "name":"Rocky Flats National Wildlife Refuge",
        "latitude":39.8773,
        "longitude":-105.19,
        "grid":"DM79jv",
        "locationDesc":"US-CO"
    },
    {
        "reference":"US-0226",
        "name":"Rocky Mountain Arsenal National Wildlife Refuge",
        "latitude":39.8367,
        "longitude":-104.837,
        "grid":"DM79nu",
        "locationDesc":"US-CO"
    },
    {
        "reference":"US-0227",
        "name":"Two Ponds National Wildlife Refuge",
        "latitude":39.8389,
        "longitude":-105.106,
        "grid":"DM79ku",
        "locationDesc":"US-CO"
    },
    {
        "reference":"US-0228",
        "name":"Stewart B. Mckinney National Wildlife Refuge",
        "latitude":41.2861,
        "longitude":-72.4716,
        "grid":"FN31sg",
        "locationDesc":"US-CT"
    },
    {
        "reference":"US-0229",
        "name":"Bombay Hook National Wildlife Refuge",
        "latitude":39.2531,
        "longitude":-75.4514,
        "grid":"FM29gg",
        "locationDesc":"US-DE"
    },
    {
        "reference":"US-0230",
        "name":"Prime Hook National Wildlife Refuge",
        "latitude":38.861,
        "longitude":-75.2651,
        "grid":"FM28iu",
        "locationDesc":"US-DE"
    },
    {
        "reference":"US-0231",
        "name":"Archie Carr National Wildlife Refuge",
        "latitude":27.8759,
        "longitude":-80.456,
        "grid":"EL97sv",
        "locationDesc":"US-FL"
    },
    {
        "reference":"US-0232",
        "name":"Arthur R. Marshall Loxahatchee National Wildlife Refuge",
        "latitude":26.4992,
        "longitude":-80.2117,
        "grid":"EL96vl",
        "locationDesc":"US-FL"
    },
    {
        "reference":"US-0234",
        "name":"Cedar Keys National Wildlife Refuge",
        "latitude":29.126,
        "longitude":-83.0319,
        "grid":"EL89ld",
        "locationDesc":"US-FL"
    },
    {
        "reference":"US-0235",
        "name":"Chassahowitzka National Wildlife Refuge",
        "latitude":28.7725,
        "longitude":-82.6269,
        "grid":"EL88qs",
        "locationDesc":"US-FL"
    },
    {
        "reference":"US-0236",
        "name":"Crocodile Lake National Wildlife Refuge",
        "latitude":25.1917,
        "longitude":-80.3566,
        "grid":"EL95te",
        "locationDesc":"US-FL"
    },
    {
        "reference":"US-0237",
        "name":"Crystal River National Wildlife Refuge",
        "latitude":28.8843,
        "longitude":-82.5922,
        "grid":"EL88qv",
        "locationDesc":"US-FL"
    },
    {
        "reference":"US-0238",
        "name":"Egmont Key National Wildlife Refuge",
        "latitude":27.5969,
        "longitude":-82.7597,
        "grid":"EL87oo",
        "locationDesc":"US-FL"
    },
    {
        "reference":"US-0239",
        "name":"Florida Panther National Wildlife Refuge",
        "latitude":26.1859,
        "longitude":-81.4054,
        "grid":"EL96he",
        "locationDesc":"US-FL"
    },
    {
        "reference":"US-0240",
        "name":"Great White Heron National Wildlife Refuge",
        "latitude":24.5984,
        "longitude":-81.5836,
        "grid":"EL94eo",
        "locationDesc":"US-FL"
    },
    {
        "reference":"US-0241",
        "name":"Hobe Sound National Wildlife Refuge",
        "latitude":27.0369,
        "longitude":-80.1119,
        "grid":"EL97wa",
        "locationDesc":"US-FL"
    },
    {
        "reference":"US-0243",
        "name":"J.N. Ding Darling National Wildlife Refuge",
        "latitude":26.4451,
        "longitude":-82.113,
        "grid":"EL86wk",
        "locationDesc":"US-FL"
    },
    {
        "reference":"US-0244",
        "name":"Key West National Wildlife Refuge",
        "latitude":24.5716,
        "longitude":-81.9749,
        "grid":"EL94an",
        "locationDesc":"US-FL"
    },
    {
        "reference":"US-0245",
        "name":"Lake Wales Ridge Wildlife Management Area",
        "latitude":27.5312,
        "longitude":-81.4056,
        "grid":"EL97hm",
        "locationDesc":"US-FL"
    },
    {
        "reference":"US-0246",
        "name":"Lake Woodruff National Wildlife Refuge",
        "latitude":29.1068,
        "longitude":-81.371,
        "grid":"EL99hc",
        "locationDesc":"US-FL"
    },
    {
        "reference":"US-0247",
        "name":"Lower Suwannee National Wildlife Refuge",
        "latitude":29.374,
        "longitude":-83.0377,
        "grid":"EL89li",
        "locationDesc":"US-FL"
    },
    {
        "reference":"US-0248",
        "name":"Matlacha Pass National Wildlife Refuge",
        "latitude":26.4822,
        "longitude":-81.9825,
        "grid":"EL96al",
        "locationDesc":"US-FL"
    },
    {
        "reference":"US-0249",
        "name":"Merritt Island National Wildlife Refuge",
        "latitude":28.642,
        "longitude":-80.7361,
        "grid":"EL98pp",
        "locationDesc":"US-FL"
    },
    {
        "reference":"US-0250",
        "name":"National Key Deer National Wildlife Refuge",
        "latitude":24.7324,
        "longitude":-81.3928,
        "grid":"EL94hr",
        "locationDesc":"US-FL"
    },
    {
        "reference":"US-0252",
        "name":"Pelican Island National Wildlife Refuge",
        "latitude":27.8106,
        "longitude":-80.4253,
        "grid":"EL97st",
        "locationDesc":"US-FL"
    },
    {
        "reference":"US-0255",
        "name":"St. Johns National Wildlife Refuge",
        "latitude":28.5509,
        "longitude":-80.8888,
        "grid":"EL98nn",
        "locationDesc":"US-FL"
    },
    {
        "reference":"US-0256",
        "name":"St. Marks National Wildlife Refuge",
        "latitude":30.1515,
        "longitude":-84.1472,
        "grid":"EM70wd",
        "locationDesc":"US-FL"
    },
    {
        "reference":"US-0257",
        "name":"St. Vincent National Wildlife Refuge",
        "latitude":29.6592,
        "longitude":-85.1318,
        "grid":"EL79kp",
        "locationDesc":"US-FL"
    },
    {
        "reference":"US-0258",
        "name":"Ten Thousand Islands National Wildlife Refuge",
        "latitude":25.9742,
        "longitude":-81.5544,
        "grid":"EL95fx",
        "locationDesc":"US-FL"
    },
    {
        "reference":"US-0259",
        "name":"Banks Lake National Wildlife Refuge",
        "latitude":31.0351,
        "longitude":-83.0956,
        "grid":"EM81ka",
        "locationDesc":"US-GA"
    },
    {
        "reference":"US-0260",
        "name":"Blackbeard Island National Wildlife Refuge",
        "latitude":31.5187,
        "longitude":-81.1962,
        "grid":"EM91jm",
        "locationDesc":"US-GA"
    },
    {
        "reference":"US-0261",
        "name":"Bond Swamp National Wildlife Refuge",
        "latitude":32.7394,
        "longitude":-83.5628,
        "grid":"EM82fr",
        "locationDesc":"US-GA"
    },
    {
        "reference":"US-0262",
        "name":"Harris Neck National Wildlife Refuge",
        "latitude":31.6312,
        "longitude":-81.2678,
        "grid":"EM91ip",
        "locationDesc":"US-GA"
    },
    {
        "reference":"US-0263",
        "name":"Okefenokee National Wildlife Refuge",
        "latitude":30.7383,
        "longitude":-82.14,
        "grid":"EM80wr",
        "locationDesc":"US-GA"
    },
    {
        "reference":"US-0264",
        "name":"Piedmont National Wildlife Refuge",
        "latitude":33.111,
        "longitude":-83.679,
        "grid":"EM83dc",
        "locationDesc":"US-GA"
    },
    {
        "reference":"US-0265",
        "name":"Pinckney Island National Wildlife Refuge",
        "latitude":32.2298,
        "longitude":-80.7848,
        "grid":"EM92of",
        "locationDesc":"US-SC"
    },
    {
        "reference":"US-0266",
        "name":"Wassaw National Wildlife Refuge",
        "latitude":31.8945,
        "longitude":-80.9922,
        "grid":"EM91mv",
        "locationDesc":"US-GA"
    },
    {
        "reference":"US-0267",
        "name":"Wolf Island National Wildlife Refuge",
        "latitude":31.3501,
        "longitude":-81.301,
        "grid":"EM91ii",
        "locationDesc":"US-GA"
    },
    {
        "reference":"US-0268",
        "name":"Desoto National Wildlife Refuge",
        "latitude":41.5484,
        "longitude":-96.0273,
        "grid":"EN11xn",
        "locationDesc":"US-IA"
    },
    {
        "reference":"US-0269",
        "name":"Driftless Area National Wildlife Refuge",
        "latitude":42.8394,
        "longitude":-91.3722,
        "grid":"EN42hu",
        "locationDesc":"US-IA"
    },
    {
        "reference":"US-0270",
        "name":"Iowa Wetland Management District",
        "latitude":43.2986,
        "longitude":-94.1184,
        "grid":"EN23wh",
        "locationDesc":"US-IA"
    },
    {
        "reference":"US-0271",
        "name":"Neal Smith National Wildlife Refuge",
        "latitude":41.5585,
        "longitude":-93.2801,
        "grid":"EN31in",
        "locationDesc":"US-IA"
    },
    {
        "reference":"US-0272",
        "name":"Port Louisa National Wildlife Refuge",
        "latitude":41.2138,
        "longitude":-91.1282,
        "grid":"EN41kf",
        "locationDesc":"US-IA,US-IL"
    },
    {
        "reference":"US-0273",
        "name":"Union Slough National Wildlife Refuge",
        "latitude":43.2838,
        "longitude":-94.1103,
        "grid":"EN23wg",
        "locationDesc":"US-IA"
    },
    {
        "reference":"US-0274",
        "name":"Bear Lake National Wildlife Refuge",
        "latitude":42.174,
        "longitude":-111.32,
        "grid":"DN42ie",
        "locationDesc":"US-ID"
    },
    {
        "reference":"US-0275",
        "name":"Camas National Wildlife Refuge",
        "latitude":43.9418,
        "longitude":-112.266,
        "grid":"DN33uw",
        "locationDesc":"US-ID"
    },
    {
        "reference":"US-0276",
        "name":"Deer Flat National Wildlife Refuge",
        "latitude":43.5609,
        "longitude":-116.666,
        "grid":"DN13qn",
        "locationDesc":"US-ID"
    },
    {
        "reference":"US-0277",
        "name":"Grays Lake National Wildlife Refuge",
        "latitude":43.01,
        "longitude":-111.39,
        "grid":"DN43ha",
        "locationDesc":"US-ID"
    },
    {
        "reference":"US-0278",
        "name":"Kootenai National Wildlife Refuge",
        "latitude":48.7163,
        "longitude":-116.405,
        "grid":"DN18tr",
        "locationDesc":"US-ID"
    },
    {
        "reference":"US-0279",
        "name":"Minidoka National Wildlife Refuge",
        "latitude":42.6679,
        "longitude":-113.387,
        "grid":"DN32hq",
        "locationDesc":"US-ID"
    },
    {
        "reference":"US-0280",
        "name":"Oxford Slough Wetland Management District",
        "latitude":42.2358,
        "longitude":-111.993,
        "grid":"DN42af",
        "locationDesc":"US-ID"
    },
    {
        "reference":"US-0281",
        "name":"Chautauqua National Wildlife Refuge",
        "latitude":40.3853,
        "longitude":-89.9761,
        "grid":"EN50aj",
        "locationDesc":"US-IL"
    },
    {
        "reference":"US-0282",
        "name":"Crab Orchard National Wildlife Refuge",
        "latitude":37.7198,
        "longitude":-89.0208,
        "grid":"EM57lr",
        "locationDesc":"US-IL"
    },
    {
        "reference":"US-0283",
        "name":"Cypress Creek National Wildlife Refuge",
        "latitude":37.2801,
        "longitude":-89.0953,
        "grid":"EM57kg",
        "locationDesc":"US-IL"
    },
    {
        "reference":"US-0284",
        "name":"Emiquon National Wildlife Refuge",
        "latitude":40.3242,
        "longitude":-90.0975,
        "grid":"EN40wh",
        "locationDesc":"US-IL"
    },
    {
        "reference":"US-0285",
        "name":"Meredosia National Wildlife Refuge",
        "latitude":39.8719,
        "longitude":-90.5678,
        "grid":"EM49ru",
        "locationDesc":"US-IL"
    },
    {
        "reference":"US-0286",
        "name":"Middle Mississippi River National Wildlife Refuge",
        "latitude":37.8531,
        "longitude":-89.7263,
        "grid":"EM57du",
        "locationDesc":"US-IL"
    },
    {
        "reference":"US-0287",
        "name":"Two Rivers National Wildlife Refuge",
        "latitude":38.9374,
        "longitude":-90.5422,
        "grid":"EM48rw",
        "locationDesc":"US-IL"
    },
    {
        "reference":"US-0288",
        "name":"Big Oaks National Wildlife Refuge",
        "latitude":38.9605,
        "longitude":-85.4165,
        "grid":"EM78hx",
        "locationDesc":"US-IN"
    },
    {
        "reference":"US-0289",
        "name":"Muscatatuck National Wildlife Refuge",
        "latitude":38.9284,
        "longitude":-85.812,
        "grid":"EM78cw",
        "locationDesc":"US-IN"
    },
    {
        "reference":"US-0290",
        "name":"Patoka River National Wildlife Refuge",
        "latitude":38.3394,
        "longitude":-87.1268,
        "grid":"EM68ki",
        "locationDesc":"US-IN"
    },
    {
        "reference":"US-0291",
        "name":"Flint Hills National Wildlife Refuge",
        "latitude":38.3123,
        "longitude":-95.9642,
        "grid":"EM28ah",
        "locationDesc":"US-KS"
    },
    {
        "reference":"US-0292",
        "name":"Kirwin National Wildlife Refuge",
        "latitude":39.6657,
        "longitude":-99.1743,
        "grid":"EM09jp",
        "locationDesc":"US-KS"
    },
    {
        "reference":"US-0293",
        "name":"Marais Des Cygnes National Wildlife Refuge",
        "latitude":38.2567,
        "longitude":-94.6568,
        "grid":"EM28qg",
        "locationDesc":"US-KS"
    },
    {
        "reference":"US-0294",
        "name":"Quivira National Wildlife Refuge",
        "latitude":38.0748,
        "longitude":-98.489,
        "grid":"EM08sb",
        "locationDesc":"US-KS"
    },
    {
        "reference":"US-0295",
        "name":"Clarks River National Wildlife Refuge",
        "latitude":36.8799,
        "longitude":-88.3447,
        "grid":"EM56tv",
        "locationDesc":"US-KY"
    },
    {
        "reference":"US-0296",
        "name":"Atchafalaya National Wildlife Refuge",
        "latitude":30.4833,
        "longitude":-91.7333,
        "grid":"EM40dl",
        "locationDesc":"US-LA"
    },
    {
        "reference":"US-0297",
        "name":"Bayou Cocodrie National Wildlife Refuge",
        "latitude":31.5747,
        "longitude":-91.6004,
        "grid":"EM41en",
        "locationDesc":"US-LA"
    },
    {
        "reference":"US-0298",
        "name":"Bayou Sauvage National Wildlife Refuge",
        "latitude":30.0914,
        "longitude":-89.8668,
        "grid":"EM50bc",
        "locationDesc":"US-LA"
    },
    {
        "reference":"US-0299",
        "name":"Bayou Teche National Wildlife Refuge",
        "latitude":29.7853,
        "longitude":-91.4637,
        "grid":"EL49gs",
        "locationDesc":"US-LA"
    },
    {
        "reference":"US-0300",
        "name":"Big Branch Marsh National Wildlife Refuge",
        "latitude":30.323,
        "longitude":-89.9366,
        "grid":"EM50ah",
        "locationDesc":"US-LA"
    },
    {
        "reference":"US-0301",
        "name":"Black Bayou Lake National Wildlife Refuge",
        "latitude":32.6052,
        "longitude":-92.0507,
        "grid":"EM32xo",
        "locationDesc":"US-LA"
    },
    {
        "reference":"US-0302",
        "name":"Bogue Chitto National Wildlife Refuge",
        "latitude":30.4559,
        "longitude":-89.7802,
        "grid":"EM50ck",
        "locationDesc":"US-LA"
    },
    {
        "reference":"US-0303",
        "name":"Breton National Wildlife Refuge",
        "latitude":29.7848,
        "longitude":-88.871,
        "grid":"EL59ns",
        "locationDesc":"US-LA"
    },
    {
        "reference":"US-0304",
        "name":"Cameron Prairie National Wildlife Refuge",
        "latitude":29.9506,
        "longitude":-93.076,
        "grid":"EL39lw",
        "locationDesc":"US-LA"
    },
    {
        "reference":"US-0305",
        "name":"Cat Island National Wildlife Refuge",
        "latitude":30.794,
        "longitude":-91.4382,
        "grid":"EM40gt",
        "locationDesc":"US-LA"
    },
    {
        "reference":"US-0306",
        "name":"Catahoula National Wildlife Refuge",
        "latitude":31.6236,
        "longitude":-91.9678,
        "grid":"EM41ao",
        "locationDesc":"US-LA"
    },
    {
        "reference":"US-0307",
        "name":"D'Arbonne National Wildlife Refuge",
        "latitude":32.6426,
        "longitude":-92.1943,
        "grid":"EM32vp",
        "locationDesc":"US-LA"
    },
    {
        "reference":"US-0308",
        "name":"Delta National Wildlife Refuge",
        "latitude":29.2507,
        "longitude":-89.1926,
        "grid":"EL59jg",
        "locationDesc":"US-LA"
    },
    {
        "reference":"US-0309",
        "name":"Grand Cote National Wildlife Refuge",
        "latitude":31.104,
        "longitude":-92.1404,
        "grid":"EM31wc",
        "locationDesc":"US-LA"
    },
    {
        "reference":"US-0311",
        "name":"Lacassine National Wildlife Refuge",
        "latitude":30.0042,
        "longitude":-92.7828,
        "grid":"EM30oa",
        "locationDesc":"US-LA"
    },
    {
        "reference":"US-0312",
        "name":"Lake Ophelia National Wildlife Refuge",
        "latitude":31.1929,
        "longitude":-91.8305,
        "grid":"EM41ce",
        "locationDesc":"US-LA"
    },
    {
        "reference":"US-0314",
        "name":"Mandalay National Wildlife Refuge",
        "latitude":29.5599,
        "longitude":-90.7788,
        "grid":"EL49on",
        "locationDesc":"US-LA"
    },
    {
        "reference":"US-0315",
        "name":"Red River National Wildlife Refuge",
        "latitude":32.4481,
        "longitude":-93.673,
        "grid":"EM32dk",
        "locationDesc":"US-LA"
    },
    {
        "reference":"US-0316",
        "name":"Sabine National Wildlife Refuge",
        "latitude":29.9039,
        "longitude":-93.5609,
        "grid":"EL39fv",
        "locationDesc":"US-LA"
    },
    {
        "reference":"US-0318",
        "name":"Tensas River National Wildlife Refuge",
        "latitude":32.3264,
        "longitude":-91.377,
        "grid":"EM42hh",
        "locationDesc":"US-LA"
    },
    {
        "reference":"US-0319",
        "name":"Upper Ouachita National Wildlife Refuge",
        "latitude":32.8902,
        "longitude":-92.0862,
        "grid":"EM32wv",
        "locationDesc":"US-LA"
    },
    {
        "reference":"US-0320",
        "name":"Assabet River National Wildlife Refuge",
        "latitude":42.4078,
        "longitude":-71.4709,
        "grid":"FN42gj",
        "locationDesc":"US-MA"
    },
    {
        "reference":"US-0321",
        "name":"Great Meadows National Wildlife Refuge",
        "latitude":42.4013,
        "longitude":-71.3725,
        "grid":"FN42hj",
        "locationDesc":"US-MA"
    },
    {
        "reference":"US-0322",
        "name":"Mashpee National Wildlife Refuge",
        "latitude":41.6022,
        "longitude":-70.5111,
        "grid":"FN41ro",
        "locationDesc":"US-MA"
    },
    {
        "reference":"US-0324",
        "name":"Monomoy National Wildlife Refuge",
        "latitude":41.6572,
        "longitude":-69.9593,
        "grid":"FN51ap",
        "locationDesc":"US-MA"
    },
    {
        "reference":"US-0325",
        "name":"Nantucket National Wildlife Refuge",
        "latitude":41.3901,
        "longitude":-70.0491,
        "grid":"FN41xj",
        "locationDesc":"US-MA"
    },
    {
        "reference":"US-0327",
        "name":"Oxbow National Wildlife Refuge",
        "latitude":42.5161,
        "longitude":-71.6223,
        "grid":"FN42em",
        "locationDesc":"US-MA"
    },
    {
        "reference":"US-0328",
        "name":"Parker River National Wildlife Refuge",
        "latitude":42.7488,
        "longitude":-70.8054,
        "grid":"FN42or",
        "locationDesc":"US-MA"
    },
    {
        "reference":"US-0329",
        "name":"Silvio O Conte National Wildlife Refuge",
        "latitude":44.7678,
        "longitude":-71.7018,
        "grid":"FN44ds",
        "locationDesc":"US-CT,US-MA,US-NH,US-VT"
    },
    {
        "reference":"US-0330",
        "name":"Thatcher Island National Wildlife Refuge",
        "latitude":42.6395,
        "longitude":-70.5741,
        "grid":"FN42rp",
        "locationDesc":"US-MA"
    },
    {
        "reference":"US-0331",
        "name":"Blackwater National Wildlife Refuge",
        "latitude":38.4454,
        "longitude":-76.1194,
        "grid":"FM18wk",
        "locationDesc":"US-MD"
    },
    {
        "reference":"US-0332",
        "name":"Eastern Neck National Wildlife Refuge",
        "latitude":39.0311,
        "longitude":-76.2248,
        "grid":"FM19va",
        "locationDesc":"US-MD"
    },
    {
        "reference":"US-0333",
        "name":"Martin National Wildlife Refuge",
        "latitude":37.9958,
        "longitude":-76.0344,
        "grid":"FM17xx",
        "locationDesc":"US-MD"
    },
    {
        "reference":"US-0334",
        "name":"Patuxent National Wildlife Refuge",
        "latitude":39.0545,
        "longitude":-76.8168,
        "grid":"FM19ob",
        "locationDesc":"US-MD"
    },
    {
        "reference":"US-0335",
        "name":"Susquehanna National Wildlife Refuge",
        "latitude":39.4952,
        "longitude":-76.0837,
        "grid":"FM19wl",
        "locationDesc":"US-MD"
    },
    {
        "reference":"US-0336",
        "name":"Aroostook National Wildlife Refuge",
        "latitude":46.9691,
        "longitude":-67.8697,
        "grid":"FN66bx",
        "locationDesc":"US-ME"
    },
    {
        "reference":"US-0337",
        "name":"Carlton Pond Wetland Management District",
        "latitude":44.7219,
        "longitude":-69.2679,
        "grid":"FN54ir",
        "locationDesc":"US-ME"
    },
    {
        "reference":"US-0338",
        "name":"Cross Island National Wildlife Refuge",
        "latitude":44.6102,
        "longitude":-67.3041,
        "grid":"FN64io",
        "locationDesc":"US-ME"
    },
    {
        "reference":"US-0339",
        "name":"Franklin Island National Wildlife Refuge",
        "latitude":43.8921,
        "longitude":-69.374,
        "grid":"FN53hv",
        "locationDesc":"US-ME"
    },
    {
        "reference":"US-0340",
        "name":"Spring Creek Hatchery State Park",
        "latitude":45.7281,
        "longitude":-121.543,
        "grid":"CN95fr",
        "locationDesc":"US-WA"
    },
    {
        "reference":"US-0341",
        "name":"Moosehorn National Wildlife Refuge",
        "latitude":45.1147,
        "longitude":-67.2815,
        "grid":"FN65ic",
        "locationDesc":"US-ME"
    },
    {
        "reference":"US-0342",
        "name":"Pond Island National Wildlife Refuge",
        "latitude":43.7397,
        "longitude":-69.77,
        "grid":"FN53cr",
        "locationDesc":"US-ME"
    },
    {
        "reference":"US-0343",
        "name":"Rachel Carson National Wildlife Refuge",
        "latitude":43.3384,
        "longitude":-70.5511,
        "grid":"FN43ri",
        "locationDesc":"US-ME"
    },
    {
        "reference":"US-0345",
        "name":"Sunkhaze Meadows National Wildlife Refuge",
        "latitude":44.9671,
        "longitude":-68.5411,
        "grid":"FN54rx",
        "locationDesc":"US-ME"
    },
    {
        "reference":"US-0346",
        "name":"Detroit River International Wildlife Refuge",
        "latitude":42.1153,
        "longitude":-83.1856,
        "grid":"EN82jc",
        "locationDesc":"US-MI"
    },
    {
        "reference":"US-0347",
        "name":"Harbor Island National Wildlife Refuge",
        "latitude":46.0548,
        "longitude":-83.7637,
        "grid":"EN86cb",
        "locationDesc":"US-MI"
    },
    {
        "reference":"US-0348",
        "name":"Huron National Wildlife Refuge",
        "latitude":46.9536,
        "longitude":-87.9739,
        "grid":"EN66aw",
        "locationDesc":"US-MI"
    },
    {
        "reference":"US-0349",
        "name":"Kirtlands Warbler Wildlife Management Area",
        "latitude":44.66,
        "longitude":-84.7142,
        "grid":"EN74pp",
        "locationDesc":"US-MI"
    },
    {
        "reference":"US-0350",
        "name":"Michigan Wetland Management District",
        "latitude":42.238,
        "longitude":-84.238,
        "grid":"EN72vf",
        "locationDesc":"US-MI"
    },
    {
        "reference":"US-0352",
        "name":"Seney National Wildlife Refuge",
        "latitude":46.2885,
        "longitude":-85.946,
        "grid":"EN76ag",
        "locationDesc":"US-MI"
    },
    {
        "reference":"US-0353",
        "name":"Shiawassee National Wildlife Refuge",
        "latitude":43.3377,
        "longitude":-84.0268,
        "grid":"EN73xi",
        "locationDesc":"US-MI"
    },
    {
        "reference":"US-0354",
        "name":"Agassiz National Wildlife Refuge",
        "latitude":48.2998,
        "longitude":-95.982,
        "grid":"EN28ah",
        "locationDesc":"US-MN"
    },
    {
        "reference":"US-0355",
        "name":"Big Stone National Wildlife Refuge",
        "latitude":45.2602,
        "longitude":-96.3406,
        "grid":"EN15tg",
        "locationDesc":"US-MN"
    },
    {
        "reference":"US-0356",
        "name":"Big Stone Wetland Management District",
        "latitude":44.3275,
        "longitude":-95.9174,
        "grid":"EN24ah",
        "locationDesc":"US-MN"
    },
    {
        "reference":"US-0357",
        "name":"Crane Meadows National Wildlife Refuge",
        "latitude":45.9337,
        "longitude":-94.2514,
        "grid":"EN25uw",
        "locationDesc":"US-MN"
    },
    {
        "reference":"US-0358",
        "name":"Detroit Lakes Wetland Management District",
        "latitude":46.8486,
        "longitude":-95.8456,
        "grid":"EN26bu",
        "locationDesc":"US-MN"
    },
    {
        "reference":"US-0359",
        "name":"Fergus Falls Wetland Management District",
        "latitude":46.2665,
        "longitude":-96.0639,
        "grid":"EN16xg",
        "locationDesc":"US-MN"
    },
    {
        "reference":"US-0360",
        "name":"Glacial Ridge National Wildlife Refuge",
        "latitude":47.6939,
        "longitude":-96.3113,
        "grid":"EN17uq",
        "locationDesc":"US-MN"
    },
    {
        "reference":"US-0361",
        "name":"Hamden Slough National Wildlife Refuge",
        "latitude":46.8985,
        "longitude":-96.0676,
        "grid":"EN16xv",
        "locationDesc":"US-MN"
    },
    {
        "reference":"US-0362",
        "name":"Litchfield Wetland Management District",
        "latitude":45.0718,
        "longitude":-94.5328,
        "grid":"EN25rb",
        "locationDesc":"US-MN"
    },
    {
        "reference":"US-0364",
        "name":"Minnesota Valley National Wildlife Refuge",
        "latitude":44.8598,
        "longitude":-93.2157,
        "grid":"EN34ju",
        "locationDesc":"US-MN"
    },
    {
        "reference":"US-0365",
        "name":"Minnesota Valley Wetland Management District",
        "latitude":45.0696,
        "longitude":-94.5329,
        "grid":"EN25rb",
        "locationDesc":"US-MN"
    },
    {
        "reference":"US-0366",
        "name":"Morris Wetland Management District",
        "latitude":45.5714,
        "longitude":-95.8256,
        "grid":"EN25cn",
        "locationDesc":"US-MN"
    },
    {
        "reference":"US-0367",
        "name":"Northern Tallgrass Prairie National Wildlife Refuge",
        "latitude":44.4592,
        "longitude":-96.1166,
        "grid":"EN14wl",
        "locationDesc":"US-IA,US-MN"
    },
    {
        "reference":"US-0368",
        "name":"Rice Lake National Wildlife Refuge",
        "latitude":46.5253,
        "longitude":-93.338,
        "grid":"EN36hm",
        "locationDesc":"US-MN"
    },
    {
        "reference":"US-0369",
        "name":"Rydell National Wildlife Refuge",
        "latitude":47.6589,
        "longitude":-96.0907,
        "grid":"EN17wp",
        "locationDesc":"US-MN"
    },
    {
        "reference":"US-0370",
        "name":"Sherburne National Wildlife Refuge",
        "latitude":45.4839,
        "longitude":-93.7112,
        "grid":"EN35dl",
        "locationDesc":"US-MN"
    },
    {
        "reference":"US-0371",
        "name":"Tamarac National Wildlife Refuge",
        "latitude":46.9581,
        "longitude":-95.6547,
        "grid":"EN26ew",
        "locationDesc":"US-MN"
    },
    {
        "reference":"US-0373",
        "name":"Windom Wetland Management District",
        "latitude":43.8584,
        "longitude":-95.0866,
        "grid":"EN23ku",
        "locationDesc":"US-MN"
    },
    {
        "reference":"US-0374",
        "name":"Big Muddy National Wildlife Refuge",
        "latitude":38.9615,
        "longitude":-92.5721,
        "grid":"EM38rx",
        "locationDesc":"US-MO"
    },
    {
        "reference":"US-0375",
        "name":"Clarence Cannon National Wildlife Refuge",
        "latitude":39.2661,
        "longitude":-90.7814,
        "grid":"EM49og",
        "locationDesc":"US-MO"
    },
    {
        "reference":"US-0376",
        "name":"Great River National Wildlife Refuge",
        "latitude":40.3279,
        "longitude":-91.4985,
        "grid":"EN40gh",
        "locationDesc":"US-MO"
    },
    {
        "reference":"US-0377",
        "name":"Mingo National Wildlife Refuge",
        "latitude":36.9699,
        "longitude":-90.1512,
        "grid":"EM46wx",
        "locationDesc":"US-MO"
    },
    {
        "reference":"US-0378",
        "name":"Miller Peninsula State Park",
        "latitude":48.0658,
        "longitude":-122.946,
        "grid":"CN88mb",
        "locationDesc":"US-WA"
    },
    {
        "reference":"US-0379",
        "name":"Dugualla State Park",
        "latitude":48.3401,
        "longitude":-122.572,
        "grid":"CN88ri",
        "locationDesc":"US-WA"
    },
    {
        "reference":"US-0380",
        "name":"Loess Bluffs National Wildlife Refuge",
        "latitude":40.0697,
        "longitude":-95.2348,
        "grid":"EN20jb",
        "locationDesc":"US-MO"
    },
    {
        "reference":"US-0381",
        "name":"Swan Lake National Wildlife Refuge",
        "latitude":39.6332,
        "longitude":-93.2325,
        "grid":"EM39jp",
        "locationDesc":"US-MO"
    },
    {
        "reference":"US-0382",
        "name":"Coldwater River National Wildlife Refuge",
        "latitude":34.0806,
        "longitude":-90.1436,
        "grid":"EM44wb",
        "locationDesc":"US-MS"
    },
    {
        "reference":"US-0383",
        "name":"Dahomey National Wildlife Refuge",
        "latitude":33.7037,
        "longitude":-90.9107,
        "grid":"EM43nq",
        "locationDesc":"US-MS"
    },
    {
        "reference":"US-0384",
        "name":"Grand Bay National Wildlife Refuge",
        "latitude":30.4248,
        "longitude":-88.4244,
        "grid":"EM50sk",
        "locationDesc":"US-AL,US-MS"
    },
    {
        "reference":"US-0385",
        "name":"Hillside National Wildlife Refuge",
        "latitude":33.0088,
        "longitude":-90.3232,
        "grid":"EM43ua",
        "locationDesc":"US-MS"
    },
    {
        "reference":"US-0386",
        "name":"Holt Collier National Wildlife Refuge",
        "latitude":33.2319,
        "longitude":-90.7846,
        "grid":"EM43of",
        "locationDesc":"US-MS"
    },
    {
        "reference":"US-0387",
        "name":"Mathews Brake National Wildlife Refuge",
        "latitude":33.3651,
        "longitude":-90.2544,
        "grid":"EM43ui",
        "locationDesc":"US-MS"
    },
    {
        "reference":"US-0388",
        "name":"Mississippi Sandhill Crane National Wildlife Refuge",
        "latitude":30.4458,
        "longitude":-88.6618,
        "grid":"EM50qk",
        "locationDesc":"US-MS"
    },
    {
        "reference":"US-0389",
        "name":"Morgan Brake National Wildlife Refuge",
        "latitude":33.2171,
        "longitude":-90.2247,
        "grid":"EM43vf",
        "locationDesc":"US-MS"
    },
    {
        "reference":"US-0390",
        "name":"Noxubee National Wildlife Refuge",
        "latitude":33.2715,
        "longitude":-88.8728,
        "grid":"EM53ng",
        "locationDesc":"US-MS"
    },
    {
        "reference":"US-0391",
        "name":"Panther Swamp National Wildlife Refuge",
        "latitude":32.8185,
        "longitude":-90.5271,
        "grid":"EM42rt",
        "locationDesc":"US-MS"
    },
    {
        "reference":"US-0392",
        "name":"St. Catherine Creek National Wildlife Refuge",
        "latitude":31.4094,
        "longitude":-91.4508,
        "grid":"EM41gj",
        "locationDesc":"US-MS"
    },
    {
        "reference":"US-0393",
        "name":"Tallahatchie National Wildlife Refuge",
        "latitude":33.7692,
        "longitude":-90.1365,
        "grid":"EM43ws",
        "locationDesc":"US-MS"
    },
    {
        "reference":"US-0395",
        "name":"Yazoo National Wildlife Refuge",
        "latitude":33.0703,
        "longitude":-90.976,
        "grid":"EM43mb",
        "locationDesc":"US-MS"
    },
    {
        "reference":"US-0396",
        "name":"Benton Lake National Wildlife Refuge",
        "latitude":47.6775,
        "longitude":-111.33,
        "grid":"DN47iq",
        "locationDesc":"US-MT"
    },
    {
        "reference":"US-0398",
        "name":"Bowdoin National Wildlife Refuge",
        "latitude":48.3953,
        "longitude":-107.579,
        "grid":"DN68fj",
        "locationDesc":"US-MT"
    },
    {
        "reference":"US-0399",
        "name":"Charles M. Russell National Wildlife Refuge",
        "latitude":47.7002,
        "longitude":-107.167,
        "grid":"DN67jq",
        "locationDesc":"US-MT"
    },
    {
        "reference":"US-0400",
        "name":"Halfbreed Lake National Wildlife Refuge",
        "latitude":45.9497,
        "longitude":-109.117,
        "grid":"DN55kw",
        "locationDesc":"US-MT"
    },
    {
        "reference":"US-0401",
        "name":"Lake Mason National Wildlife Refuge",
        "latitude":46.514,
        "longitude":-108.674,
        "grid":"DN56pm",
        "locationDesc":"US-MT"
    },
    {
        "reference":"US-0402",
        "name":"Lee Metcalf National Wildlife Refuge",
        "latitude":46.5559,
        "longitude":-114.077,
        "grid":"DN26xn",
        "locationDesc":"US-MT"
    },
    {
        "reference":"US-0403",
        "name":"Lost Trail National Wildlife Refuge",
        "latitude":48.175,
        "longitude":-114.907,
        "grid":"DN28ne",
        "locationDesc":"US-MT"
    },
    {
        "reference":"US-0404",
        "name":"Medicine Lake National Wildlife Refuge",
        "latitude":48.4835,
        "longitude":-104.45,
        "grid":"DN78sl",
        "locationDesc":"US-MT"
    },
    {
        "reference":"US-0405",
        "name":"CSKT Bison Range Protected Area",
        "latitude":47.3672,
        "longitude":-114.255,
        "grid":"DN27ui",
        "locationDesc":"US-MT"
    },
    {
        "reference":"US-0406",
        "name":"Northwest Montana Wetland Management District",
        "latitude":47.4029,
        "longitude":-114.166,
        "grid":"DN27wj",
        "locationDesc":"US-MT"
    },
    {
        "reference":"US-0407",
        "name":"Red Rock Lakes National Wildlife Refuge",
        "latitude":44.5995,
        "longitude":-111.811,
        "grid":"DN44co",
        "locationDesc":"US-MT"
    },
    {
        "reference":"US-0408",
        "name":"UL Bend National Wildlife Refuge",
        "latitude":47.6003,
        "longitude":-107.88,
        "grid":"DN67bo",
        "locationDesc":"US-MT"
    },
    {
        "reference":"US-0409",
        "name":"War Horse National Wildlife Refuge",
        "latitude":47.1134,
        "longitude":-108.564,
        "grid":"DN57rc",
        "locationDesc":"US-MT"
    },
    {
        "reference":"US-0410",
        "name":"Alligator River National Wildlife Refuge",
        "latitude":35.864,
        "longitude":-75.8608,
        "grid":"FM25bu",
        "locationDesc":"US-NC"
    },
    {
        "reference":"US-0411",
        "name":"Cedar Island National Wildlife Refuge",
        "latitude":34.9554,
        "longitude":-76.3892,
        "grid":"FM14tw",
        "locationDesc":"US-NC"
    },
    {
        "reference":"US-0412",
        "name":"Currituck National Wildlife Refuge",
        "latitude":36.4519,
        "longitude":-75.8493,
        "grid":"FM26bk",
        "locationDesc":"US-NC"
    },
    {
        "reference":"US-0413",
        "name":"Mackay Island National Wildlife Refuge",
        "latitude":36.5158,
        "longitude":-75.9669,
        "grid":"FM26am",
        "locationDesc":"US-NC"
    },
    {
        "reference":"US-0414",
        "name":"Mattamuskeet National Wildlife Refuge",
        "latitude":35.488,
        "longitude":-76.1749,
        "grid":"FM15vl",
        "locationDesc":"US-NC"
    },
    {
        "reference":"US-0415",
        "name":"Pea Island National Wildlife Refuge",
        "latitude":35.7169,
        "longitude":-75.4934,
        "grid":"FM25gr",
        "locationDesc":"US-NC"
    },
    {
        "reference":"US-0416",
        "name":"Pee Dee National Wildlife Refuge",
        "latitude":35.0589,
        "longitude":-80.0638,
        "grid":"EM95xb",
        "locationDesc":"US-NC"
    },
    {
        "reference":"US-0417",
        "name":"Pocosin Lakes National Wildlife Refuge",
        "latitude":35.6929,
        "longitude":-76.5421,
        "grid":"FM15rq",
        "locationDesc":"US-NC"
    },
    {
        "reference":"US-0418",
        "name":"Roanoke River National Wildlife Refuge",
        "latitude":35.8872,
        "longitude":-77.0224,
        "grid":"FM15lv",
        "locationDesc":"US-NC"
    },
    {
        "reference":"US-0419",
        "name":"Swanquarter National Wildlife Refuge",
        "latitude":35.3802,
        "longitude":-76.2538,
        "grid":"FM15uj",
        "locationDesc":"US-NC"
    },
    {
        "reference":"US-0420",
        "name":"Arrowwood National Wildlife Refuge",
        "latitude":47.2709,
        "longitude":-98.8518,
        "grid":"EN07ng",
        "locationDesc":"US-ND"
    },
    {
        "reference":"US-0421",
        "name":"Arrowwood Wetland Management District",
        "latitude":47.5517,
        "longitude":-99.1375,
        "grid":"EN07kn",
        "locationDesc":"US-ND"
    },
    {
        "reference":"US-0422",
        "name":"Audubon National Wildlife Refuge",
        "latitude":47.5783,
        "longitude":-101.247,
        "grid":"DN97jn",
        "locationDesc":"US-ND"
    },
    {
        "reference":"US-0423",
        "name":"Chase Lake National Wildlife Refuge",
        "latitude":47.0238,
        "longitude":-99.4602,
        "grid":"EN07ga",
        "locationDesc":"US-ND"
    },
    {
        "reference":"US-0424",
        "name":"Des Lacs National Wildlife Refuge",
        "latitude":48.6691,
        "longitude":-102.097,
        "grid":"DN88wq",
        "locationDesc":"US-ND"
    },
    {
        "reference":"US-0425",
        "name":"Devils Lake Wetland Management District",
        "latitude":48.1655,
        "longitude":-98.8874,
        "grid":"EN08nd",
        "locationDesc":"US-ND"
    },
    {
        "reference":"US-0426",
        "name":"Florence Lake National Wildlife Refuge",
        "latitude":47.2868,
        "longitude":-100.327,
        "grid":"DN97ug",
        "locationDesc":"US-ND"
    },
    {
        "reference":"US-0427",
        "name":"J. Clark Salyer National Wildlife Refuge",
        "latitude":48.6174,
        "longitude":-100.729,
        "grid":"DN98po",
        "locationDesc":"US-ND"
    },
    {
        "reference":"US-0428",
        "name":"J. Clark Salyer Wetland Management District",
        "latitude":48.6114,
        "longitude":-100.719,
        "grid":"DN98po",
        "locationDesc":"US-ND"
    },
    {
        "reference":"US-0429",
        "name":"Kellys Slough National Wildlife Refuge",
        "latitude":47.9754,
        "longitude":-97.2797,
        "grid":"EN17ix",
        "locationDesc":"US-ND"
    },
    {
        "reference":"US-0430",
        "name":"Kulm Wetland Management District",
        "latitude":46.3119,
        "longitude":-98.9331,
        "grid":"EN06mh",
        "locationDesc":"US-ND"
    },
    {
        "reference":"US-0431",
        "name":"Lake Alice National Wildlife Refuge",
        "latitude":48.3703,
        "longitude":-99.0797,
        "grid":"EN08li",
        "locationDesc":"US-ND"
    },
    {
        "reference":"US-0432",
        "name":"Lake Ilo National Wildlife Refuge",
        "latitude":47.3431,
        "longitude":-102.653,
        "grid":"DN87qi",
        "locationDesc":"US-ND"
    },
    {
        "reference":"US-0433",
        "name":"Lake Zahl National Wildlife Refuge",
        "latitude":48.5683,
        "longitude":-103.669,
        "grid":"DN88dn",
        "locationDesc":"US-ND"
    },
    {
        "reference":"US-0434",
        "name":"Long Lake National Wildlife Refuge",
        "latitude":46.6699,
        "longitude":-100.228,
        "grid":"DN96vq",
        "locationDesc":"US-ND"
    },
    {
        "reference":"US-0435",
        "name":"Lostwood National Wildlife Refuge",
        "latitude":48.6428,
        "longitude":-102.405,
        "grid":"DN88tp",
        "locationDesc":"US-ND"
    },
    {
        "reference":"US-0436",
        "name":"Slade National Wildlife Refuge",
        "latitude":46.8377,
        "longitude":-99.7216,
        "grid":"EN06du",
        "locationDesc":"US-ND"
    },
    {
        "reference":"US-0437",
        "name":"White Horse Hill Game Preserve",
        "latitude":47.9877,
        "longitude":-98.9989,
        "grid":"EN07mx",
        "locationDesc":"US-ND"
    },
    {
        "reference":"US-0438",
        "name":"Tewaukon National Wildlife Refuge",
        "latitude":46.0012,
        "longitude":-97.3722,
        "grid":"EN16ha",
        "locationDesc":"US-ND"
    },
    {
        "reference":"US-0439",
        "name":"Upper Souris National Wildlife Refuge",
        "latitude":48.4588,
        "longitude":-101.568,
        "grid":"DN98fl",
        "locationDesc":"US-ND"
    },
    {
        "reference":"US-0440",
        "name":"Valley City Wetland Management District",
        "latitude":46.9795,
        "longitude":-97.9489,
        "grid":"EN16ax",
        "locationDesc":"US-ND"
    },
    {
        "reference":"US-0441",
        "name":"Boyer Chute National Wildlife Refuge",
        "latitude":41.4517,
        "longitude":-95.9509,
        "grid":"EN21ak",
        "locationDesc":"US-NE"
    },
    {
        "reference":"US-0442",
        "name":"Crescent Lake National Wildlife Refuge",
        "latitude":41.7105,
        "longitude":-102.4,
        "grid":"DN81tr",
        "locationDesc":"US-NE"
    },
    {
        "reference":"US-0443",
        "name":"Fort Niobrara National Wildlife Refuge",
        "latitude":42.893,
        "longitude":-100.477,
        "grid":"DN92sv",
        "locationDesc":"US-NE"
    },
    {
        "reference":"US-0445",
        "name":"North Platte National Wildlife Refuge",
        "latitude":41.9549,
        "longitude":-103.532,
        "grid":"DN81fw",
        "locationDesc":"US-NE"
    },
    {
        "reference":"US-0446",
        "name":"Rainwater Basin Wetland Management District",
        "latitude":40.5173,
        "longitude":-99.2171,
        "grid":"EN00jm",
        "locationDesc":"US-NE"
    },
    {
        "reference":"US-0447",
        "name":"Valentine National Wildlife Refuge",
        "latitude":42.5391,
        "longitude":-100.535,
        "grid":"DN92rm",
        "locationDesc":"US-NE"
    },
    {
        "reference":"US-0448",
        "name":"Great Bay National Wildlife Refuge",
        "latitude":43.0892,
        "longitude":-70.8436,
        "grid":"FN43nc",
        "locationDesc":"US-NH"
    },
    {
        "reference":"US-0449",
        "name":"John Hay National Wildlife Refuge",
        "latitude":43.3516,
        "longitude":-72.0408,
        "grid":"FN33xi",
        "locationDesc":"US-NH"
    },
    {
        "reference":"US-0450",
        "name":"Lake Umbagog National Wildlife Refuge",
        "latitude":44.8319,
        "longitude":-71.0757,
        "grid":"FN44lt",
        "locationDesc":"US-ME,US-NH"
    },
    {
        "reference":"US-0451",
        "name":"Wapack National Wildlife Refuge",
        "latitude":42.9002,
        "longitude":-71.8751,
        "grid":"FN42bv",
        "locationDesc":"US-NH"
    },
    {
        "reference":"US-0452",
        "name":"Cape May National Wildlife Refuge",
        "latitude":39.0998,
        "longitude":-74.8796,
        "grid":"FM29nc",
        "locationDesc":"US-NJ"
    },
    {
        "reference":"US-0453",
        "name":"Edwin B. Forsythe National Wildlife Refuge",
        "latitude":39.4647,
        "longitude":-74.4498,
        "grid":"FM29sl",
        "locationDesc":"US-NJ"
    },
    {
        "reference":"US-0454",
        "name":"Great Swamp National Wildlife Refuge",
        "latitude":40.7136,
        "longitude":-74.5133,
        "grid":"FN20rr",
        "locationDesc":"US-NJ"
    },
    {
        "reference":"US-0455",
        "name":"Supawna Meadows National Wildlife Refuge",
        "latitude":39.6169,
        "longitude":-75.5343,
        "grid":"FM29fo",
        "locationDesc":"US-NJ"
    },
    {
        "reference":"US-0456",
        "name":"Wallkill River National Wildlife Refuge",
        "latitude":41.2008,
        "longitude":-74.5642,
        "grid":"FN21re",
        "locationDesc":"US-NJ,US-NY"
    },
    {
        "reference":"US-0457",
        "name":"Bitter Lake National Wildlife Refuge",
        "latitude":33.456,
        "longitude":-104.372,
        "grid":"DM73tk",
        "locationDesc":"US-NM"
    },
    {
        "reference":"US-0458",
        "name":"Bosque Del Apache National Wildlife Refuge",
        "latitude":33.8044,
        "longitude":-106.879,
        "grid":"DM63nt",
        "locationDesc":"US-NM"
    },
    {
        "reference":"US-0459",
        "name":"Las Vegas National Wildlife Refuge",
        "latitude":35.5252,
        "longitude":-105.135,
        "grid":"DM75km",
        "locationDesc":"US-NM"
    },
    {
        "reference":"US-0460",
        "name":"Maxwell National Wildlife Refuge",
        "latitude":36.5715,
        "longitude":-104.57,
        "grid":"DM76rn",
        "locationDesc":"US-NM"
    },
    {
        "reference":"US-0462",
        "name":"Sevilleta National Wildlife Refuge",
        "latitude":34.3416,
        "longitude":-107.035,
        "grid":"DM64li",
        "locationDesc":"US-NM"
    },
    {
        "reference":"US-0464",
        "name":"Ash Meadows National Wildlife Refuge",
        "latitude":36.4255,
        "longitude":-116.288,
        "grid":"DM16uk",
        "locationDesc":"US-NV"
    },
    {
        "reference":"US-0465",
        "name":"Desert National Wildlife Refuge",
        "latitude":36.438,
        "longitude":-115.359,
        "grid":"DM26hk",
        "locationDesc":"US-NV"
    },
    {
        "reference":"US-0466",
        "name":"Fallon National Wildlife Refuge",
        "latitude":39.7589,
        "longitude":-118.603,
        "grid":"DM09qs",
        "locationDesc":"US-NV"
    },
    {
        "reference":"US-0467",
        "name":"Moapa Valley National Wildlife Refuge",
        "latitude":36.7132,
        "longitude":-114.714,
        "grid":"DM26pr",
        "locationDesc":"US-NV"
    },
    {
        "reference":"US-0468",
        "name":"Pahranagat National Wildlife Refuge",
        "latitude":37.2464,
        "longitude":-115.104,
        "grid":"DM27kf",
        "locationDesc":"US-NV"
    },
    {
        "reference":"US-0469",
        "name":"Ruby Lake National Wildlife Refuge",
        "latitude":40.202,
        "longitude":-115.493,
        "grid":"DN20ge",
        "locationDesc":"US-NV"
    },
    {
        "reference":"US-0470",
        "name":"Sheldon National Wildlife Refuge",
        "latitude":41.8865,
        "longitude":-119.132,
        "grid":"DN01kv",
        "locationDesc":"US-NV"
    },
    {
        "reference":"US-0471",
        "name":"Stillwater National Wildlife Refuge",
        "latitude":39.5193,
        "longitude":-118.519,
        "grid":"DM09rm",
        "locationDesc":"US-NV"
    },
    {
        "reference":"US-0472",
        "name":"Amagansett National Wildlife Refuge",
        "latitude":40.9692,
        "longitude":-72.1242,
        "grid":"FN30wx",
        "locationDesc":"US-NY"
    },
    {
        "reference":"US-0473",
        "name":"Conscience Point National Wildlife Refuge",
        "latitude":40.9421,
        "longitude":-72.4183,
        "grid":"FN30sw",
        "locationDesc":"US-NY"
    },
    {
        "reference":"US-0474",
        "name":"Elizabeth A. Morton National Wildlife Refuge",
        "latitude":40.9884,
        "longitude":-72.3684,
        "grid":"FN30tx",
        "locationDesc":"US-NY"
    },
    {
        "reference":"US-0475",
        "name":"Iroquois National Wildlife Refuge",
        "latitude":43.112,
        "longitude":-78.4072,
        "grid":"FN03tc",
        "locationDesc":"US-NY"
    },
    {
        "reference":"US-0476",
        "name":"Montezuma National Wildlife Refuge",
        "latitude":42.963,
        "longitude":-76.7363,
        "grid":"FN12px",
        "locationDesc":"US-NY"
    },
    {
        "reference":"US-0477",
        "name":"Congressman Lester Wolff Oyster Bay National Wildlife Refuge",
        "latitude":40.9031,
        "longitude":-73.5406,
        "grid":"FN30fv",
        "locationDesc":"US-NY"
    },
    {
        "reference":"US-0478",
        "name":"Seatuck National Wildlife Refuge",
        "latitude":40.7153,
        "longitude":-73.2074,
        "grid":"FN30jr",
        "locationDesc":"US-NY"
    },
    {
        "reference":"US-0479",
        "name":"Shawangunk Grasslands National Wildlife Refuge",
        "latitude":41.6381,
        "longitude":-74.2068,
        "grid":"FN21vp",
        "locationDesc":"US-NY"
    },
    {
        "reference":"US-0480",
        "name":"Target Rock National Wildlife Refuge",
        "latitude":40.9271,
        "longitude":-73.4303,
        "grid":"FN30gw",
        "locationDesc":"US-NY"
    },
    {
        "reference":"US-0481",
        "name":"Wertheim National Wildlife Refuge",
        "latitude":40.7936,
        "longitude":-72.8803,
        "grid":"FN30nt",
        "locationDesc":"US-NY"
    },
    {
        "reference":"US-0482",
        "name":"Cedar Point National Wildlife Refuge",
        "latitude":41.672,
        "longitude":-83.3125,
        "grid":"EN81iq",
        "locationDesc":"US-OH"
    },
    {
        "reference":"US-0483",
        "name":"Ottawa National Wildlife Refuge",
        "latitude":41.6074,
        "longitude":-83.2106,
        "grid":"EN81jo",
        "locationDesc":"US-OH"
    },
    {
        "reference":"US-0485",
        "name":"Deep Fork National Wildlife Refuge",
        "latitude":35.5386,
        "longitude":-95.9277,
        "grid":"EM25am",
        "locationDesc":"US-OK"
    },
    {
        "reference":"US-0486",
        "name":"Little River National Wildlife Refuge",
        "latitude":33.9532,
        "longitude":-94.7028,
        "grid":"EM23pw",
        "locationDesc":"US-OK"
    },
    {
        "reference":"US-0487",
        "name":"Optima National Wildlife Refuge",
        "latitude":36.6435,
        "longitude":-101.213,
        "grid":"DM96jp",
        "locationDesc":"US-OK"
    },
    {
        "reference":"US-0489",
        "name":"Salt Plains National Wildlife Refuge",
        "latitude":36.7853,
        "longitude":-98.1792,
        "grid":"EM06vs",
        "locationDesc":"US-OK"
    },
    {
        "reference":"US-0490",
        "name":"Sequoyah National Wildlife Refuge",
        "latitude":35.4474,
        "longitude":-94.9724,
        "grid":"EM25mk",
        "locationDesc":"US-OK"
    },
    {
        "reference":"US-0491",
        "name":"Tishomingo National Wildlife Refuge",
        "latitude":34.1938,
        "longitude":-96.6437,
        "grid":"EM14qe",
        "locationDesc":"US-OK"
    },
    {
        "reference":"US-0492",
        "name":"Washita National Wildlife Refuge",
        "latitude":35.6519,
        "longitude":-99.2814,
        "grid":"EM05ip",
        "locationDesc":"US-OK"
    },
    {
        "reference":"US-0493",
        "name":"Wichita Mountains National Wildlife Refuge",
        "latitude":34.7106,
        "longitude":-98.6236,
        "grid":"EM04qr",
        "locationDesc":"US-OK"
    },
    {
        "reference":"US-0494",
        "name":"Ankeny National Wildlife Refuge",
        "latitude":44.7867,
        "longitude":-123.09,
        "grid":"CN84ks",
        "locationDesc":"US-OR"
    },
    {
        "reference":"US-0495",
        "name":"Bandon Marsh National Wildlife Refuge",
        "latitude":43.1574,
        "longitude":-124.38,
        "grid":"CN73td",
        "locationDesc":"US-OR"
    },
    {
        "reference":"US-0496",
        "name":"Baskett Slough National Wildlife Refuge",
        "latitude":44.962,
        "longitude":-123.257,
        "grid":"CN84ix",
        "locationDesc":"US-OR"
    },
    {
        "reference":"US-0498",
        "name":"Cape Meares National Wildlife Refuge",
        "latitude":45.4859,
        "longitude":-123.974,
        "grid":"CN85al",
        "locationDesc":"US-OR"
    },
    {
        "reference":"US-0499",
        "name":"Cold Springs National Wildlife Refuge",
        "latitude":45.8552,
        "longitude":-119.157,
        "grid":"DN05ku",
        "locationDesc":"US-OR"
    },
    {
        "reference":"US-0500",
        "name":"Hart Mountain National Wildlife Refuge",
        "latitude":42.5489,
        "longitude":-119.655,
        "grid":"DN02en",
        "locationDesc":"US-OR"
    },
    {
        "reference":"US-0501",
        "name":"Klamath Marsh National Wildlife Refuge",
        "latitude":42.9215,
        "longitude":-121.726,
        "grid":"CN92dw",
        "locationDesc":"US-OR"
    },
    {
        "reference":"US-0502",
        "name":"Malheur National Wildlife Refuge",
        "latitude":43.2657,
        "longitude":-118.844,
        "grid":"DN03ng",
        "locationDesc":"US-OR"
    },
    {
        "reference":"US-0503",
        "name":"McKay Creek National Wildlife Refuge",
        "latitude":45.5968,
        "longitude":-118.798,
        "grid":"DN05oo",
        "locationDesc":"US-OR"
    },
    {
        "reference":"US-0504",
        "name":"Nestucca Bay National Wildlife Refuge",
        "latitude":45.1621,
        "longitude":-123.952,
        "grid":"CN85ad",
        "locationDesc":"US-OR"
    },
    {
        "reference":"US-0505",
        "name":"Oregon Islands National Wildlife Refuge",
        "latitude":43.1132,
        "longitude":-124.434,
        "grid":"CN73sc",
        "locationDesc":"US-OR"
    },
    {
        "reference":"US-0506",
        "name":"Siletz Bay National Wildlife Refuge",
        "latitude":44.8966,
        "longitude":-124.012,
        "grid":"CN74xv",
        "locationDesc":"US-OR"
    },
    {
        "reference":"US-0508",
        "name":"Tualatin River National Wildlife Refuge",
        "latitude":45.3813,
        "longitude":-122.831,
        "grid":"CN85oj",
        "locationDesc":"US-OR"
    },
    {
        "reference":"US-0509",
        "name":"Upper Klamath National Wildlife Refuge",
        "latitude":42.5099,
        "longitude":-122.089,
        "grid":"CN82wm",
        "locationDesc":"US-OR"
    },
    {
        "reference":"US-0510",
        "name":"William L. Finley National Wildlife Refuge",
        "latitude":44.4075,
        "longitude":-123.341,
        "grid":"CN84hj",
        "locationDesc":"US-OR"
    },
    {
        "reference":"US-0511",
        "name":"Erie National Wildlife Refuge",
        "latitude":41.6267,
        "longitude":-79.9598,
        "grid":"FN01ap",
        "locationDesc":"US-PA"
    },
    {
        "reference":"US-0512",
        "name":"John Heinz National Wildlife Refuge",
        "latitude":39.8929,
        "longitude":-75.2575,
        "grid":"FM29iv",
        "locationDesc":"US-PA"
    },
    {
        "reference":"US-0513",
        "name":"Block Island National Wildlife Refuge",
        "latitude":41.2133,
        "longitude":-71.5724,
        "grid":"FN41ff",
        "locationDesc":"US-RI"
    },
    {
        "reference":"US-0514",
        "name":"John H. Chafee National Wildlife Refuge",
        "latitude":41.443,
        "longitude":-71.4707,
        "grid":"FN41gk",
        "locationDesc":"US-RI"
    },
    {
        "reference":"US-0515",
        "name":"Ninigret National Wildlife Refuge",
        "latitude":41.3682,
        "longitude":-71.6716,
        "grid":"FN41di",
        "locationDesc":"US-RI"
    },
    {
        "reference":"US-0516",
        "name":"Sachuest Point National Wildlife Refuge",
        "latitude":41.4798,
        "longitude":-71.2436,
        "grid":"FN41jl",
        "locationDesc":"US-RI"
    },
    {
        "reference":"US-0517",
        "name":"Trustom Pond National Wildlife Refuge",
        "latitude":41.3834,
        "longitude":-71.5846,
        "grid":"FN41ej",
        "locationDesc":"US-RI"
    },
    {
        "reference":"US-0518",
        "name":"Cape Romain National Wildlife Refuge",
        "latitude":32.9402,
        "longitude":-79.6581,
        "grid":"FM02ew",
        "locationDesc":"US-SC"
    },
    {
        "reference":"US-0519",
        "name":"Carolina Sandhills National Wildlife Refuge",
        "latitude":34.5796,
        "longitude":-80.2328,
        "grid":"EM94vn",
        "locationDesc":"US-SC"
    },
    {
        "reference":"US-0520",
        "name":"Ernest F. Hollings ACE Basin National Wildlife Refuge",
        "latitude":32.6968,
        "longitude":-80.3813,
        "grid":"EM92tq",
        "locationDesc":"US-SC"
    },
    {
        "reference":"US-0521",
        "name":"Santee National Wildlife Refuge",
        "latitude":33.5305,
        "longitude":-80.427,
        "grid":"EM93sm",
        "locationDesc":"US-SC"
    },
    {
        "reference":"US-0522",
        "name":"Savannah National Wildlife Refuge",
        "latitude":32.1655,
        "longitude":-81.1514,
        "grid":"EM92kd",
        "locationDesc":"US-GA,US-SC"
    },
    {
        "reference":"US-0523",
        "name":"Rock Cave State Nature Preserve",
        "latitude":39.1078,
        "longitude":-88.8057,
        "grid":"EM59oc",
        "locationDesc":"US-IL"
    },
    {
        "reference":"US-0524",
        "name":"Waccamaw National Wildlife Refuge",
        "latitude":33.7857,
        "longitude":-79.0329,
        "grid":"FM03ls",
        "locationDesc":"US-SC"
    },
    {
        "reference":"US-0525",
        "name":"Huron Wetland Management District",
        "latitude":44.4061,
        "longitude":-98.2414,
        "grid":"EN04vj",
        "locationDesc":"US-SD"
    },
    {
        "reference":"US-0526",
        "name":"Wildcat Hollow State Nature Preserve",
        "latitude":38.9959,
        "longitude":-88.616,
        "grid":"EM58qx",
        "locationDesc":"US-IL"
    },
    {
        "reference":"US-0527",
        "name":"Lacreek National Wildlife Refuge",
        "latitude":43.0997,
        "longitude":-101.567,
        "grid":"DN93fc",
        "locationDesc":"US-SD"
    },
    {
        "reference":"US-0528",
        "name":"Lake Andes National Wildlife Refuge",
        "latitude":43.1697,
        "longitude":-98.4523,
        "grid":"EN03se",
        "locationDesc":"US-SD"
    },
    {
        "reference":"US-0529",
        "name":"Madison Wetland Management District",
        "latitude":44.1917,
        "longitude":-96.9899,
        "grid":"EN14me",
        "locationDesc":"US-SD"
    },
    {
        "reference":"US-0530",
        "name":"Sand Lake National Wildlife Refuge",
        "latitude":45.725,
        "longitude":-98.302,
        "grid":"EN05ur",
        "locationDesc":"US-SD"
    },
    {
        "reference":"US-0531",
        "name":"Waubay National Wildlife Refuge",
        "latitude":45.4248,
        "longitude":-97.3267,
        "grid":"EN15ik",
        "locationDesc":"US-SD"
    },
    {
        "reference":"US-0532",
        "name":"Waubay Wetland Management District",
        "latitude":45.38,
        "longitude":-97.4433,
        "grid":"EN15gj",
        "locationDesc":"US-SD"
    },
    {
        "reference":"US-0533",
        "name":"Chickasaw National Wildlife Refuge",
        "latitude":35.8361,
        "longitude":-89.6558,
        "grid":"EM55eu",
        "locationDesc":"US-TN"
    },
    {
        "reference":"US-0534",
        "name":"Cross Creeks National Wildlife Refuge",
        "latitude":36.4745,
        "longitude":-87.7354,
        "grid":"EM66dl",
        "locationDesc":"US-TN"
    },
    {
        "reference":"US-0535",
        "name":"Hatchie National Wildlife Refuge",
        "latitude":35.4993,
        "longitude":-89.2648,
        "grid":"EM55il",
        "locationDesc":"US-TN"
    },
    {
        "reference":"US-0536",
        "name":"Lake Isom National Wildlife Refuge",
        "latitude":36.3182,
        "longitude":-89.4211,
        "grid":"EM56gh",
        "locationDesc":"US-TN"
    },
    {
        "reference":"US-0537",
        "name":"Lower Hatchie National Wildlife Refuge",
        "latitude":35.6016,
        "longitude":-89.8916,
        "grid":"EM55bo",
        "locationDesc":"US-TN"
    },
    {
        "reference":"US-0538",
        "name":"Reelfoot National Wildlife Refuge",
        "latitude":36.4404,
        "longitude":-89.3529,
        "grid":"EM56hk",
        "locationDesc":"US-KY,US-TN"
    },
    {
        "reference":"US-0539",
        "name":"Tennessee National Wildlife Refuge",
        "latitude":35.8761,
        "longitude":-87.9257,
        "grid":"EM65av",
        "locationDesc":"US-TN"
    },
    {
        "reference":"US-0540",
        "name":"Anahuac National Wildlife Refuge",
        "latitude":29.6002,
        "longitude":-94.4729,
        "grid":"EL29so",
        "locationDesc":"US-TX"
    },
    {
        "reference":"US-0541",
        "name":"Aransas National Wildlife Refuge",
        "latitude":28.245,
        "longitude":-96.916,
        "grid":"EL18nf",
        "locationDesc":"US-TX"
    },
    {
        "reference":"US-0542",
        "name":"Attwater Prairie Chicken National Wildlife Refuge",
        "latitude":29.6837,
        "longitude":-96.2584,
        "grid":"EL19uq",
        "locationDesc":"US-TX"
    },
    {
        "reference":"US-0543",
        "name":"Balcones Canyonlands National Wildlife Refuge",
        "latitude":30.5079,
        "longitude":-98.0239,
        "grid":"EM00xm",
        "locationDesc":"US-TX"
    },
    {
        "reference":"US-0544",
        "name":"Big Boggy National Wildlife Refuge",
        "latitude":28.7571,
        "longitude":-95.8081,
        "grid":"EL28cs",
        "locationDesc":"US-TX"
    },
    {
        "reference":"US-0545",
        "name":"Brazoria National Wildlife Refuge",
        "latitude":29.0667,
        "longitude":-95.2458,
        "grid":"EL29jb",
        "locationDesc":"US-TX"
    },
    {
        "reference":"US-0546",
        "name":"Buffalo Lake National Wildlife Refuge",
        "latitude":34.9097,
        "longitude":-102.111,
        "grid":"DM84wv",
        "locationDesc":"US-TX"
    },
    {
        "reference":"US-0547",
        "name":"Grulla National Wildlife Refuge",
        "latitude":34.0959,
        "longitude":-103.109,
        "grid":"DM84kc",
        "locationDesc":"US-NM"
    },
    {
        "reference":"US-0548",
        "name":"Hagerman National Wildlife Refuge",
        "latitude":33.7392,
        "longitude":-96.7523,
        "grid":"EM13or",
        "locationDesc":"US-TX"
    },
    {
        "reference":"US-0549",
        "name":"Laguna Atascosa National Wildlife Refuge",
        "latitude":26.2151,
        "longitude":-97.3603,
        "grid":"EL16hf",
        "locationDesc":"US-TX"
    },
    {
        "reference":"US-0550",
        "name":"Lower Rio Grande Valley National Wildlife Refuge",
        "latitude":26.0734,
        "longitude":-98.167,
        "grid":"EL06vb",
        "locationDesc":"US-TX"
    },
    {
        "reference":"US-0551",
        "name":"McFaddin National Wildlife Refuge",
        "latitude":29.7176,
        "longitude":-94.0929,
        "grid":"EL29wr",
        "locationDesc":"US-TX"
    },